{
	"type": "FeatureCollection",
	"features": [
		{
			"type": "Feature",
			"geometry": { "type": "Point", "coordinates": [153.0921, -26.83729] },
			"properties": {
				"@id": "relation/378259",
				"leisure": "golf_course",
				"name": "Pelican Waters Golf Course",
				"type": "multipolygon"
			}
		},
		{
			"type": "Feature",
			"geometry": { "type": "Point", "coordinates": [144.76293, -37.89343] },
			"properties": {
				"@id": "relation/568569",
				"leisure": "golf_course",
				"name": "Sanctuary Lakes Golf Club",
				"type": "multipolygon",
				"wikidata": "Q7415712"
			}
		},
		{
			"type": "Feature",
			"geometry": { "type": "Point", "coordinates": [116.00625, -31.75825] },
			"properties": {
				"@id": "relation/1249371",
				"addr:postcode": "6069",
				"addr:state": "WA",
				"addr:street": "Verdelho Drive",
				"email": "info@vines.com.au",
				"leisure": "golf_course",
				"name": "The Vines Golf Course",
				"opening_hours": "Mo-Su 06:30-17:00",
				"operator": "The Vines",
				"phone": "+61 8 9297 0709",
				"source": "https://www.vines.com.au/golf;https://www.vines.com.au/golf/driving-range-perth",
				"sport": "golf",
				"type": "multipolygon",
				"website": "https://www.vines.com.au/golf"
			}
		},
		{
			"type": "Feature",
			"geometry": { "type": "Point", "coordinates": [153.15567, -27.6589] },
			"properties": {
				"@id": "relation/1383520",
				"addr:housenumber": "2-22",
				"addr:state": "QLD",
				"addr:street": "Golf Course Drive",
				"leisure": "golf_course",
				"name": "Meadowbrook Golf Club",
				"old_name": "Logan City Golf Club",
				"phone": "+61 7 3299 6653",
				"type": "multipolygon",
				"website": "https://meadowbrookgolfclub.com.au/"
			}
		},
		{
			"type": "Feature",
			"geometry": { "type": "Point", "coordinates": [151.66733, -30.22217] },
			"properties": {
				"@id": "relation/1411534",
				"leisure": "golf_course",
				"name": "Guyra Golf Course",
				"type": "multipolygon"
			}
		},
		{
			"type": "Feature",
			"geometry": { "type": "Point", "coordinates": [142.46076, -38.38884] },
			"properties": {
				"@id": "relation/1493247",
				"leisure": "golf_course",
				"name": "Warrnambool Golf Club",
				"type": "multipolygon"
			}
		},
		{
			"type": "Feature",
			"geometry": { "type": "Point", "coordinates": [139.29936, -34.92551] },
			"properties": {
				"@id": "relation/1538931",
				"leisure": "golf_course",
				"name": "Mannum Golf Club",
				"type": "multipolygon"
			}
		},
		{
			"type": "Feature",
			"geometry": { "type": "Point", "coordinates": [153.19667, -27.74314] },
			"properties": {
				"@id": "relation/1582134",
				"leisure": "golf_course",
				"name": "Windaroo Golf Course",
				"type": "multipolygon"
			}
		},
		{
			"type": "Feature",
			"geometry": { "type": "Point", "coordinates": [153.05184, -27.44451] },
			"properties": {
				"@id": "relation/1627150",
				"addr:housenumber": "105",
				"addr:postcode": "4171",
				"addr:state": "QLD",
				"addr:street": "Quay Street",
				"addr:suburb": "Bulimba",
				"leisure": "golf_course",
				"name": "Bulimba Golf Club",
				"phone": "+61 7 3399 6524",
				"sport": "golf",
				"type": "multipolygon"
			}
		},
		{
			"type": "Feature",
			"geometry": { "type": "Point", "coordinates": [153.10704, -27.51655] },
			"properties": {
				"@id": "relation/1668736",
				"addr:housenumber": "430",
				"addr:postcode": "4152",
				"addr:state": "QLD",
				"addr:street": "Pine Mountain Road",
				"addr:suburb": "Carindale",
				"description": "18 hole Par 72 & 9 hole Par 27",
				"golf:course": "18_hole",
				"golf:par": "72 + 27",
				"leisure": "golf_course",
				"name": "Pacific Golf Club",
				"phone": "+61 7 3343 0888",
				"type": "multipolygon",
				"website": "https://www.pacificgolf.com.au/"
			}
		},
		{
			"type": "Feature",
			"geometry": { "type": "Point", "coordinates": [153.08968, -27.66783] },
			"properties": {
				"@id": "relation/1688002",
				"leisure": "golf_course",
				"name": "Marsden Golf Driving Range",
				"sport": "golf",
				"type": "multipolygon"
			}
		},
		{
			"type": "Feature",
			"geometry": { "type": "Point", "coordinates": [152.99434, -27.50536] },
			"properties": {
				"@id": "relation/1753670",
				"contact:phone": "+61 7 3870 3433",
				"golf:course": "18 hole",
				"leisure": "golf_course",
				"name": "Saint Lucia Golf Links",
				"opening_hours": "sunrise-sunset; Dec 25 off",
				"operator": "Brisbane City Council",
				"type": "multipolygon"
			}
		},
		{
			"type": "Feature",
			"geometry": { "type": "Point", "coordinates": [152.99532, -27.51425] },
			"properties": {
				"@id": "relation/1753696",
				"addr:housenumber": "145-293",
				"addr:street": "Meiers Road",
				"leisure": "golf_course",
				"name": "Indooroopilly Golf Course",
				"sport": "golf",
				"type": "multipolygon"
			}
		},
		{
			"type": "Feature",
			"geometry": { "type": "Point", "coordinates": [147.59813, -34.87185] },
			"properties": {
				"@id": "relation/1755750",
				"leisure": "golf_course",
				"name": "Junee Golf Club",
				"type": "multipolygon"
			}
		},
		{
			"type": "Feature",
			"geometry": { "type": "Point", "coordinates": [143.10229, -38.2323] },
			"properties": {
				"@id": "relation/1852562",
				"leisure": "golf_course",
				"name": "Camperdown Golf Club",
				"type": "multipolygon"
			}
		},
		{
			"type": "Feature",
			"geometry": { "type": "Point", "coordinates": [142.79851, -38.07597] },
			"properties": {
				"@id": "relation/1856532",
				"leisure": "golf_course",
				"name": "Mortlake Golf Club",
				"type": "multipolygon"
			}
		},
		{
			"type": "Feature",
			"geometry": { "type": "Point", "coordinates": [138.54155, -34.27128] },
			"properties": {
				"@id": "relation/1925409",
				"leisure": "golf_course",
				"name": "Owen Golf Club",
				"type": "multipolygon"
			}
		},
		{
			"type": "Feature",
			"geometry": { "type": "Point", "coordinates": [138.83489, -34.60961] },
			"properties": {
				"@id": "relation/1972007",
				"addr:housenumber": "129",
				"addr:state": "SA",
				"addr:street": "Williamstown Road",
				"leisure": "golf_course",
				"name": "Sandy Creek Golf Club",
				"old_name": "Gawler Golf Club",
				"phone": "+61 8 8524 4231",
				"source": "Bing",
				"type": "multipolygon",
				"website": "https://www.sandycreekgolf.com.au/cms/"
			}
		},
		{
			"type": "Feature",
			"geometry": { "type": "Point", "coordinates": [151.15795, -33.93825] },
			"properties": {
				"@id": "relation/2031564",
				"leisure": "golf_course",
				"name": "Kogarah Golf Course",
				"note": "Due to nearby construction, three holes of the course were removed. Holes 1, 2 and 10 serve as the final three holes. The course itself may be completely moved.",
				"type": "multipolygon"
			}
		},
		{
			"type": "Feature",
			"geometry": { "type": "Point", "coordinates": [151.13812, -33.91637] },
			"properties": {
				"@id": "relation/2061509",
				"addr:street": "Wharf Street",
				"description": "18 hole Par 60",
				"email": "manager@marrickvillegolf.com.au",
				"golf:course": "18_hole",
				"golf:par": "60",
				"leisure": "golf_course",
				"name": "Marrickville Golf Club",
				"phone": "+61 2 9558 6862;+61 2 9558 1876",
				"type": "multipolygon",
				"website": "https://www.marrickvillegolf.com.au/"
			}
		},
		{
			"type": "Feature",
			"geometry": { "type": "Point", "coordinates": [151.21853, -33.89962] },
			"properties": {
				"@id": "relation/2253129",
				"description": "18 hole Par 70",
				"email": "info@mpgolf.com.au",
				"golf:course": "18_hole",
				"golf:par": "70",
				"leisure": "golf_course",
				"name": "Moore Park Golf",
				"phone": "+61 2 9663 1064",
				"type": "multipolygon",
				"website": "https://www.mooreparkgolf.com.au/"
			}
		},
		{
			"type": "Feature",
			"geometry": { "type": "Point", "coordinates": [146.84285, -36.1256] },
			"properties": {
				"@id": "relation/2565680",
				"leisure": "golf_course",
				"name": "Wodonga Golf Course",
				"type": "multipolygon"
			}
		},
		{
			"type": "Feature",
			"geometry": { "type": "Point", "coordinates": [150.9135, -31.1273] },
			"properties": {
				"@id": "relation/2676822",
				"addr:postcode": "2340",
				"addr:street": "Greg Norman Drive",
				"description": "18 hole Par 72",
				"golf:course": "18_hole",
				"golf:designer": "Greg Norman",
				"golf:par": "72",
				"leisure": "golf_course",
				"name": "Longyard Golf Course",
				"phone": "+61 2 6765 2988",
				"sport": "golf",
				"type": "multipolygon",
				"website": "https://longyardgolf.com.au"
			}
		},
		{
			"type": "Feature",
			"geometry": { "type": "Point", "coordinates": [151.20808, -33.95958] },
			"properties": {
				"@id": "relation/2724750",
				"leisure": "golf_course",
				"name": "Botany Golf Club",
				"type": "multipolygon"
			}
		},
		{
			"type": "Feature",
			"geometry": { "type": "Point", "coordinates": [152.72945, -31.46257] },
			"properties": {
				"@id": "relation/2763837",
				"leisure": "golf_course",
				"name": "Wauchope Country Club Golf Course",
				"type": "multipolygon"
			}
		},
		{
			"type": "Feature",
			"geometry": { "type": "Point", "coordinates": [149.08691, -35.30432] },
			"properties": {
				"@id": "relation/2792096",
				"leisure": "golf_course",
				"name": "Royal Canberra Golf Club",
				"note": "because the two sides are dissected by dundrossil drive",
				"type": "multipolygon",
				"website": "https://www.royalcanberra.com.au/",
				"wikidata": "Q7373918"
			}
		},
		{
			"type": "Feature",
			"geometry": { "type": "Point", "coordinates": [140.73164, -36.93995] },
			"properties": {
				"@id": "relation/2867464",
				"leisure": "golf_course",
				"name": "Naracoorte Golf Club",
				"sport": "golf",
				"type": "multipolygon"
			}
		},
		{
			"type": "Feature",
			"geometry": { "type": "Point", "coordinates": [150.97553, -33.906] },
			"properties": {
				"@id": "relation/2874141",
				"addr:postcode": "2166",
				"addr:street": "Hollywood Drive",
				"addr:suburb": "Lansvale",
				"description": "18 hole Par 72",
				"golf:course": "18_hole",
				"golf:par": "72",
				"leisure": "golf_course",
				"name": "Liverpool Golf Club",
				"phone": "+61 2 9728 7777",
				"type": "multipolygon",
				"website": "https://liverpoolgolf.com.au/"
			}
		},
		{
			"type": "Feature",
			"geometry": { "type": "Point", "coordinates": [139.33414, -35.69681] },
			"properties": {
				"@id": "relation/2884188",
				"leisure": "golf_course",
				"name": "Lake Albert Golf Club",
				"sport": "golf",
				"type": "multipolygon"
			}
		},
		{
			"type": "Feature",
			"geometry": { "type": "Point", "coordinates": [151.11729, -33.8632] },
			"properties": {
				"@id": "relation/2942522",
				"addr:housenumber": "551",
				"addr:postcode": "2046",
				"addr:street": "Lyons Road West",
				"description": "18 hole Par 61",
				"golf:course": "18_hole",
				"golf:par": "61",
				"leisure": "golf_course",
				"name": "Barnwell Park Golf Club",
				"note": "golf@barnwellparkgolfclub.com.au",
				"phone": "+61 2 9713 9019;+61 2 9713 1162",
				"source": "Bing",
				"type": "multipolygon",
				"website": "https://www.barnwellparkgolfclub.com.au/"
			}
		},
		{
			"type": "Feature",
			"geometry": { "type": "Point", "coordinates": [151.29652, -33.66995] },
			"properties": {
				"@id": "relation/2981993",
				"addr:housenumber": "1825",
				"addr:street": "Pittwater Road",
				"description": "18 hole Par 70",
				"email": "proshop@bayviewgolfclub.com.au",
				"golf:course": "18_hole",
				"golf:par": "70",
				"leisure": "golf_course",
				"name": "Bayview Golf Club",
				"phone": "+61 2 9999 3078;+61 2 9999 3786",
				"sport": "golf",
				"type": "multipolygon",
				"website": "https://www.bayviewgolfclub.com/"
			}
		},
		{
			"type": "Feature",
			"geometry": { "type": "Point", "coordinates": [151.27157, -33.69825] },
			"properties": {
				"@id": "relation/2982080",
				"addr:housenumber": "154",
				"addr:postcode": "2101",
				"addr:street": "Elanora Road",
				"addr:suburb": "Elanora Heights",
				"description": "18 hole Par 72",
				"email": "ecc@elanoracc.com.au",
				"golf:course": "18_hole",
				"golf:par": "72",
				"layer": "-1",
				"leisure": "golf_course",
				"name": "Elanora Country Club",
				"phone": "+61 2 9913 7336",
				"type": "multipolygon",
				"website": "https://www.elanoracc.com.au/"
			}
		},
		{
			"type": "Feature",
			"geometry": { "type": "Point", "coordinates": [138.55876, -35.2677] },
			"properties": {
				"@id": "relation/2991951",
				"leisure": "golf_course",
				"name": "Willunga Golf Course",
				"type": "multipolygon"
			}
		},
		{
			"type": "Feature",
			"geometry": { "type": "Point", "coordinates": [144.22505, -35.76877] },
			"properties": {
				"@id": "relation/2994405",
				"leisure": "golf_course",
				"name": "Cohuna Golf Club",
				"type": "multipolygon"
			}
		},
		{
			"type": "Feature",
			"geometry": { "type": "Point", "coordinates": [151.06094, -33.97198] },
			"properties": {
				"@id": "relation/3016089",
				"leisure": "golf_course",
				"name": "Hurstville Golf Course",
				"source:name": "survey",
				"type": "multipolygon",
				"website": "http://www.hurstvillegolfclub.com.au/"
			}
		},
		{
			"type": "Feature",
			"geometry": { "type": "Point", "coordinates": [151.24345, -33.99269] },
			"properties": {
				"@id": "relation/3045927",
				"access": "private",
				"addr:postcode": "2036",
				"addr:street": "Henry Head",
				"description": "18 hole Par 72",
				"email": "admin@nswgolfclub.com.au",
				"golf:course": "18_hole",
				"golf:par": "72",
				"leisure": "golf_course",
				"name": "NSW Golf Club",
				"phone": "+61 2 9661 4455",
				"type": "multipolygon",
				"website": "https://www.nswgolfclub.com.au/",
				"wikidata": "Q194787",
				"wikipedia": "en:New South Wales Golf Club"
			}
		},
		{
			"type": "Feature",
			"geometry": { "type": "Point", "coordinates": [167.96388, -29.05925] },
			"properties": {
				"@id": "relation/3227214",
				"addr:housenumber": "1",
				"addr:street": "Quality Row",
				"contact:fax": "+672 3 23243",
				"contact:phone": "+672 3 22354",
				"description": "Par 72, 5,682m course",
				"leisure": "golf_course",
				"name": "Norfolk Island Golf Club",
				"sport": "golf",
				"type": "multipolygon",
				"website": "https://www.norfolkislandgolf.com/"
			}
		},
		{
			"type": "Feature",
			"geometry": { "type": "Point", "coordinates": [115.11276, -33.62599] },
			"properties": {
				"@id": "relation/3357583",
				"addr:postcode": "6281",
				"addr:street": "Caves Road",
				"description": "18 hole Par 72",
				"golf:course": "18_hole",
				"golf:par": "72",
				"leisure": "golf_course",
				"name": "Dunsborough Lakes Resort Golf Course",
				"phone": "+61 8 9756 8733",
				"type": "multipolygon",
				"website": "http://dunsboroughlakes.au-golf.net/"
			}
		},
		{
			"type": "Feature",
			"geometry": { "type": "Point", "coordinates": [133.88657, -23.7149] },
			"properties": {
				"@id": "relation/3461779",
				"addr:country": "AU",
				"addr:postcode": "0870",
				"addr:state": "NT",
				"addr:street": "Cromwell Drive",
				"leisure": "golf_course",
				"name": "Alice Springs Golf Club",
				"source": "bing_imagery",
				"type": "multipolygon",
				"website": "https://www.alicespringsgolfclub.com.au/"
			}
		},
		{
			"type": "Feature",
			"geometry": { "type": "Point", "coordinates": [147.28042, -43.0054] },
			"properties": {
				"@id": "relation/3504483",
				"addr:housenumber": "1395",
				"addr:street": "Channel Highway",
				"description": "18 hole Par 72",
				"golf:course": "18_hole",
				"golf:par": "72",
				"leisure": "golf_course",
				"name": "North West Bay Golf Course",
				"phone": "+61 3 6267 2166",
				"type": "multipolygon",
				"website": "https://northwestbaygolfclub.com.au/"
			}
		},
		{
			"type": "Feature",
			"geometry": { "type": "Point", "coordinates": [153.19251, -30.09004] },
			"properties": {
				"@id": "relation/3903791",
				"addr:postcode": "2456",
				"addr:street": "Safety Beach Drive",
				"leisure": "golf_course",
				"name": "Woolgoolga RSL Golf Club",
				"phone": "+61 2 6654 2111",
				"type": "multipolygon",
				"website": "https://www.woolgoolgarslgolfclub.com"
			}
		},
		{
			"type": "Feature",
			"geometry": { "type": "Point", "coordinates": [147.11199, -41.48204] },
			"properties": {
				"@id": "relation/4011778",
				"description": "18 hole Par 71",
				"golf:course": "18_hole",
				"golf:par": "71",
				"leisure": "golf_course",
				"name": "Country Club Tasmania / Prospect Vale Golf Club",
				"phone": "+61 3 6225 7092",
				"sport": "golf",
				"type": "multipolygon",
				"website": "https://www.countryclubtasmania.com.au/default.asp?pID=286"
			}
		},
		{
			"type": "Feature",
			"geometry": { "type": "Point", "coordinates": [137.6717, -34.37438] },
			"properties": {
				"@id": "relation/4011788",
				"addr:housenumber": "2",
				"addr:postcode": "5573",
				"addr:street": "Gardiner Terrace",
				"description": "18 hole Par 68",
				"golf:course": "18_hole",
				"golf:par": "69",
				"leisure": "golf_course",
				"name": "Maitland Golf Club (SA)",
				"phone": "+61 8 8832 2741",
				"type": "multipolygon",
				"website": "http://www.maitlandgolf.com.au/"
			}
		},
		{
			"type": "Feature",
			"geometry": { "type": "Point", "coordinates": [150.76114, -33.83958] },
			"properties": {
				"@id": "relation/4017006",
				"addr:postcode": "2745",
				"addr:state": "NSW",
				"addr:street": "Twin Creeks Drive",
				"addr:suburb": "Luddenham",
				"description": "18 hole Par 72",
				"golf:course": "18_hole",
				"golf:par": "72",
				"leisure": "golf_course",
				"name": "Twin Creeks Golf Club",
				"phone": "+61 2 9670 8888",
				"type": "multipolygon",
				"website": "https://www.twincreeksgolf.com.au/"
			}
		},
		{
			"type": "Feature",
			"geometry": { "type": "Point", "coordinates": [115.75481, -32.40614] },
			"properties": {
				"@id": "relation/4017008",
				"addr:postcode": "6173",
				"addr:state": "WA",
				"addr:street": "Secret Harbour Boulevard",
				"description": "18 hole Par 72",
				"golf:course": "18_hole",
				"leisure": "golf_course",
				"name": "Secret Harbour Links Golf Course",
				"phone": "+61 8 9524 7133",
				"type": "multipolygon",
				"website": "https://www.secretsgolf.com.au/"
			}
		},
		{
			"type": "Feature",
			"geometry": { "type": "Point", "coordinates": [153.40261, -28.07486] },
			"properties": {
				"@id": "relation/4017049",
				"addr:postcode": "4226",
				"addr:street": "Great Southern Drive",
				"golf:course": "18_hole",
				"golf:par": "71",
				"leisure": "golf_course",
				"name": "Palmer Gold Coast (Robina Woods) Golf Club",
				"phone": "+61 7 5593 1766",
				"source": "nearmap;Bing",
				"type": "multipolygon",
				"website": "http://robinawoods.au-golf.net/"
			}
		},
		{
			"type": "Feature",
			"geometry": { "type": "Point", "coordinates": [153.07114, -26.49066] },
			"properties": {
				"@id": "relation/4017053",
				"description": "18 hole Par 72",
				"golf:course": "18_hole",
				"golf:par": "72",
				"leisure": "golf_course",
				"name": "Peregian Springs Golf Club",
				"phone": "+61 7 5471 5400",
				"type": "multipolygon",
				"website": "http://www.peregianspringsgolfclub.com.au/"
			}
		},
		{
			"type": "Feature",
			"geometry": { "type": "Point", "coordinates": [137.6005, -34.77179] },
			"properties": {
				"@id": "relation/4079613",
				"description": "18 hole Par 71",
				"fixme": "add website",
				"golf:course": "18_hole",
				"golf:par": "71",
				"leisure": "golf_course",
				"name": "Minlaton Golf Course",
				"type": "multipolygon"
			}
		},
		{
			"type": "Feature",
			"geometry": { "type": "Point", "coordinates": [138.78988, -35.09239] },
			"properties": {
				"@id": "relation/4079615",
				"description": "18 hole Par 70",
				"golf:course": "18_hole",
				"golf:par": "70",
				"leisure": "golf_course",
				"name": "Echunga Golf Club",
				"phone": "+61 8 8388 8038",
				"type": "multipolygon",
				"website": "http://www.echungagolf.com.au/"
			}
		},
		{
			"type": "Feature",
			"geometry": { "type": "Point", "coordinates": [137.58151, -34.06578] },
			"properties": {
				"@id": "relation/4079642",
				"leisure": "golf_course",
				"name": "Moonta Golf Course",
				"phone": "+61 8 8825 2107",
				"type": "multipolygon"
			}
		},
		{
			"type": "Feature",
			"geometry": { "type": "Point", "coordinates": [150.87622, -33.98225] },
			"properties": {
				"@id": "relation/4079647",
				"description": "18 hole Par 72",
				"leisure": "golf_course",
				"name": "Macquarie Links",
				"phone": "+61 2 8796 5811;+61 2 8796 5888",
				"type": "multipolygon",
				"website": "https://www.macquarielinksgolfclub.com.au/"
			}
		},
		{
			"type": "Feature",
			"geometry": { "type": "Point", "coordinates": [116.03585, -32.69995] },
			"properties": {
				"@id": "relation/4083523",
				"fixme": "still in operation? add name & contact details",
				"leisure": "golf_course",
				"type": "multipolygon"
			}
		},
		{
			"type": "Feature",
			"geometry": { "type": "Point", "coordinates": [152.48157, -24.88421] },
			"properties": {
				"@id": "relation/4178988",
				"addr:housenumber": "1",
				"addr:street": "Pebble Beach Drive",
				"description": "18 hole Par 72",
				"email": "reservations@coralcoveresort.com.au",
				"golf:course": "18_hole",
				"golf:par": "72",
				"leisure": "golf_course",
				"name": "Coral Cove Golf Course",
				"phone": "+61 7 4159 3333;+61 7 4132 5600",
				"phone:AU": "1800 356 722",
				"source": "GPS and Yahoo Imagery;nearmap",
				"type": "multipolygon",
				"website": "http://www.coralcoveresort.com.au/"
			}
		},
		{
			"type": "Feature",
			"geometry": { "type": "Point", "coordinates": [149.09245, -35.18802] },
			"properties": {
				"@id": "relation/4180346",
				"addr:housenumber": "50",
				"addr:street": "Curran Drive",
				"description": "18 hole Par 72",
				"golf:course": "18_hole",
				"golf:par": "72",
				"leisure": "golf_course",
				"name": "Gold Creek Country Club",
				"phone": "+61 2 6123 0601",
				"type": "multipolygon",
				"website": "https://www.goldcreekcountryclub.com.au/"
			}
		},
		{
			"type": "Feature",
			"geometry": { "type": "Point", "coordinates": [145.03358, -37.97253] },
			"properties": {
				"@id": "relation/4180358",
				"addr:street": "Cheltenham Road",
				"description": "18 hole Par 72 West Course & 18 hole Par 71 East Course",
				"email": "golfbookings@rmgolf.com.au",
				"golf:course": "18_hole",
				"golf:par": "72",
				"leisure": "golf_course",
				"name": "Royal Melbourne Golf Club",
				"phone": "+61 3 9599 0500",
				"source": "nearmap",
				"type": "multipolygon",
				"website": "https://www.royalmelbourne.com.au/",
				"wikidata": "Q607620"
			}
		},
		{
			"type": "Feature",
			"geometry": { "type": "Point", "coordinates": [151.32266, -32.73927] },
			"properties": {
				"@id": "relation/4180361",
				"addr:country": "AU",
				"addr:postcode": "2320",
				"addr:state": "NSW",
				"addr:street": "Vintage Drive",
				"description": "18 hole Par 71",
				"email": "golf@thevintage.com.au",
				"golf:course": "18_hole",
				"golf:designer": "Greg Norman",
				"golf:par": "71",
				"leisure": "golf_course",
				"name": "The Vintage Golf Club",
				"phone": "+61 2 4998 2208;+61 2 4998 6789",
				"type": "multipolygon",
				"website": "https://chateauelan.com.au/golf-course-hunter-valley/",
				"wikidata": "Q7772725"
			}
		},
		{
			"type": "Feature",
			"geometry": { "type": "Point", "coordinates": [144.22787, -37.5946] },
			"properties": {
				"@id": "relation/4180758",
				"description": "18 hole Par 62",
				"golf:course": "18_hole",
				"golf:par": "62",
				"leisure": "golf_course",
				"name": "Ballan Golf Course",
				"phone": "+61 3 5368 1522",
				"type": "multipolygon",
				"website": "https://www.ballangolfclub.com/"
			}
		},
		{
			"type": "Feature",
			"geometry": { "type": "Point", "coordinates": [144.48341, -38.28528] },
			"properties": {
				"@id": "relation/4180836",
				"addr:postcode": "3227",
				"addr:street": "Golf Links Road",
				"description": "18 hole Par 70",
				"golf:course": "18_hole",
				"golf:par": "70",
				"leisure": "golf_course",
				"name": "Barwon Heads Golf Course",
				"phone": "+61 3 5255 6255",
				"source": "nearmap",
				"type": "multipolygon",
				"website": "http://www.bhgc.com.au/"
			}
		},
		{
			"type": "Feature",
			"geometry": { "type": "Point", "coordinates": [149.00317, -35.22366] },
			"properties": {
				"@id": "relation/4180856",
				"addr:street": "Stockdill Drive",
				"description": "18 hole Par 72",
				"golf:course": "18_hole",
				"golf:par": "72",
				"leisure": "golf_course",
				"name": "Belconnen Golf Course",
				"old_name": "Woodhaven Green Golf Course",
				"phone": "+61 2 6254 2922",
				"type": "multipolygon",
				"website": "https://belconnenmagpies.com.au/"
			}
		},
		{
			"type": "Feature",
			"geometry": { "type": "Point", "coordinates": [138.91622, -33.66548] },
			"properties": {
				"@id": "relation/4180864",
				"description": "18 hole Par 70",
				"golf:course": "18_hole",
				"golf:par": "70",
				"leisure": "golf_course",
				"name": "Burra Golf Course",
				"phone": "+61 8 8892 2066",
				"source": "AGRI",
				"type": "multipolygon",
				"website": "https://www.burragolf.com.au/"
			}
		},
		{
			"type": "Feature",
			"geometry": { "type": "Point", "coordinates": [144.15909, -37.08066] },
			"properties": {
				"@id": "relation/4180929",
				"addr:street": "Pyrenees Highway",
				"description": "18 hole Par 72",
				"golf:course": "18_hole",
				"golf:par": "72",
				"leisure": "golf_course",
				"name": "Castlemaine Golf Club",
				"phone": "+61 3 5472 1682",
				"sport": "golf",
				"type": "multipolygon",
				"website": "https://www.castlemainegolf.com/"
			}
		},
		{
			"type": "Feature",
			"geometry": { "type": "Point", "coordinates": [142.91033, -37.26879] },
			"properties": {
				"@id": "relation/4180935",
				"addr:street": "Golf Links Road",
				"description": "18 hole Par 70",
				"email": "chalgolf@netconnect.com.au",
				"golf:course": "18_hole",
				"golf:par": "70",
				"leisure": "golf_course",
				"name": "Chalambar Golf Club",
				"phone": "+61 3 5352 4297",
				"type": "multipolygon",
				"website": "https://www.araratchalambargolf.com.au/"
			}
		},
		{
			"type": "Feature",
			"geometry": { "type": "Point", "coordinates": [144.5677, -38.153] },
			"properties": {
				"@id": "relation/4180936",
				"addr:street": "Clear Water Drive",
				"description": "18 hole Par 71",
				"golf:course": "18_hole",
				"golf:par": "71",
				"leisure": "golf_course",
				"name": "Clifton Springs Golf Course",
				"phone": "+61 3 5253 1488;+61 3 5251 3391",
				"type": "multipolygon",
				"website": "https://www.cliftonspringsgolfclub.com.au/"
			}
		},
		{
			"type": "Feature",
			"geometry": { "type": "Point", "coordinates": [145.68328, -35.90182] },
			"properties": {
				"@id": "relation/4181733",
				"addr:housenumber": "134",
				"addr:postcode": "3644",
				"addr:street": "Golf Course Road",
				"addr:suburb": "Barooga",
				"description": "18 hole Par 72 Old Course & 18 hole Par 72 West Course",
				"golf:course": "18_hole",
				"golf:par": "72 + 72",
				"leisure": "golf_course",
				"name": "Cobram-Barooga Golf Club",
				"phone": "+61 3 5873 4372;+61 3 5873 4304",
				"sport": "golf",
				"type": "multipolygon",
				"website": "https://cbgc.com.au/"
			}
		},
		{
			"type": "Feature",
			"geometry": { "type": "Point", "coordinates": [144.38641, -38.14903] },
			"properties": {
				"@id": "relation/4182920",
				"addr:postcode": "3219",
				"addr:suburb": "East Geelong",
				"description": "9 hole Par 35",
				"golf:course": "9_hole",
				"golf:par": "35",
				"leisure": "golf_course",
				"name": "East Geelong Golf Course",
				"phone": "+61 3 5229 3634",
				"sport": "golf",
				"type": "multipolygon",
				"website": "https://eastgeelonggolfclub.com.au"
			}
		},
		{
			"type": "Feature",
			"geometry": { "type": "Point", "coordinates": [153.37112, -28.07647] },
			"properties": {
				"@id": "relation/4183317",
				"addr:postcode": "4226",
				"addr:street": "Glades Drive",
				"description": "18 hole Par 72",
				"golf:course": "18_hole",
				"golf:designer": "Greg Norman",
				"golf:par": "72",
				"leisure": "golf_course",
				"name": "Glades Golf Course",
				"phone": "+61 7 5569 1900",
				"type": "multipolygon",
				"website": "https://www.glades.com.au/"
			}
		},
		{
			"type": "Feature",
			"geometry": { "type": "Point", "coordinates": [149.11611, -35.18245] },
			"properties": {
				"@id": "relation/4183325",
				"addr:street": "Gundaroo Drive",
				"description": "18 hole Par 72",
				"email": "golfsec@gungahlinlakes.com",
				"golf:course": "18_hole",
				"golf:par": "72",
				"leisure": "golf_course",
				"name": "Gungahlin Lakes Golf Club",
				"phone": "+61 2 6108 0821;+61 2 6180 0840;+61 2 6242 4662",
				"type": "multipolygon",
				"website": "https://www.gungahlinlakesgolf.com.au/cms/"
			}
		},
		{
			"type": "Feature",
			"geometry": { "type": "Point", "coordinates": [151.15233, -33.77127] },
			"properties": {
				"@id": "relation/4185306",
				"addr:housenumber": "556",
				"addr:street": "Pacific Highway",
				"description": "18 hole Par 72",
				"email": "reception@kgc.com.au",
				"golf:course": "18_hole",
				"golf:par": "72",
				"leisure": "golf_course",
				"name": "Killara Golf Club",
				"phone": "+61 2 9498 6730;+61 2 9498 2700",
				"type": "multipolygon",
				"website": "https://www.kgc.com.au/"
			}
		},
		{
			"type": "Feature",
			"geometry": { "type": "Point", "coordinates": [136.40246, -33.12308] },
			"properties": {
				"@id": "relation/4185308",
				"addr:postcode": "5641",
				"addr:street": "Buckleboo Road",
				"contact:facebook": "https://www.facebook.com/KimbaGolfClub",
				"description": "18 Hole Par 72",
				"golf:course": "18_hole",
				"golf:par": "72",
				"leisure": "golf_course",
				"name": "Kimba Golf Course",
				"phone": "+61 8 8627 2235",
				"type": "multipolygon"
			}
		},
		{
			"type": "Feature",
			"geometry": { "type": "Point", "coordinates": [150.34897, -33.72269] },
			"properties": {
				"@id": "relation/4185313",
				"addr:postcode": "2780",
				"addr:street": "Sublime Point Road",
				"addr:suburb": "Leura",
				"description": "18 hole Par 69",
				"email": "admin@leuragolfclub.com.au",
				"golf:course": "18_hole",
				"golf:par": "69",
				"leisure": "golf_course",
				"name": "Leura Golf Course",
				"phone": "+61 2 4782 5011;+61 2 4784 1503",
				"source": "nearmap",
				"source:name": "knowledge",
				"sport": "golf",
				"type": "multipolygon",
				"website": "https://www.leuragolfclub.com.au/"
			}
		},
		{
			"type": "Feature",
			"geometry": { "type": "Point", "coordinates": [135.92474, -34.54466] },
			"properties": {
				"@id": "relation/4185347",
				"addr:street": "Louth Terrace",
				"contact:facebook": "https://www.facebook.com/Louth-Bay-Golf-Club-467906900062804/",
				"description": "9 hole Par 36",
				"golf:course": "9_hole",
				"golf:par": "36",
				"leisure": "golf_course",
				"name": "Louth Bay Golf Course",
				"note": "moved from fixme - add website. They appear to use FB. Have added",
				"phone": "+61 8 8684 6015",
				"type": "multipolygon"
			}
		},
		{
			"type": "Feature",
			"geometry": { "type": "Point", "coordinates": [150.13836, -36.22114] },
			"properties": {
				"@id": "relation/4185489",
				"addr:housenumber": "1",
				"addr:postcode": "2546",
				"addr:street": "Ballingalla Street",
				"addr:suburb": "Narooma",
				"description": "18 hole Par 72",
				"golf:course": "18_hole",
				"golf:length:blue": "398,330,141,368,458,311,424,317,193,320,460,333,369,169,344,427,129,450",
				"golf:length:red": "358,247,109,313,436,291,389,226,144,250,402,208,319,160,296,401,120,411",
				"golf:length:white": "393,330,132,360,448,301,416,308,184,310,448,323,360,162,325,424,121,445",
				"golf:length_unit": "meters",
				"golf:par": "4,4,3,4,5,4,4,4,3,4,5,4,4,3,4,5,3,5",
				"leisure": "golf_course",
				"name": "Narooma Golf Course",
				"phone": "+61 2 4476 0507;+61 2 4476 2522",
				"sport": "golf",
				"type": "multipolygon",
				"website": "https://www.naroomagolf.com.au/"
			}
		},
		{
			"type": "Feature",
			"geometry": { "type": "Point", "coordinates": [138.58668, -34.90845] },
			"properties": {
				"@id": "relation/4186159",
				"addr:postcode": "5006",
				"addr:street": "Strangways Terrace",
				"description": "18 hole Par 71 South Course & 18 hole Par 69 North Course",
				"email": "teeoff@northadelaidegolf.com.au",
				"golf:course": "18_hole",
				"golf:par": "71 + 69",
				"leisure": "golf_course",
				"name": "North Adelaide Golf Course",
				"phone": "+61 8 8203 7888",
				"type": "multipolygon",
				"website": "https://northadelaidegolf.com.au/",
				"wikidata": "Q65086015",
				"wikipedia": "en:North Adelaide Golf Course"
			}
		},
		{
			"type": "Feature",
			"geometry": { "type": "Point", "coordinates": [152.97671, -27.5716] },
			"properties": {
				"@id": "relation/4186266",
				"addr:housenumber": "290",
				"addr:postcode": "4075",
				"addr:street": "Boundary Road",
				"addr:suburb": "Oxley",
				"description": "18 hole Par 72",
				"email": "admin@oxleygolfclub.com.au",
				"golf:course": "18_hole",
				"golf:par": "72",
				"leisure": "golf_course",
				"name": "Oxley Golf Club",
				"phone": "+61 7 3379 6322",
				"type": "multipolygon",
				"website": "https://www.oxleygolfclub.com.au/"
			}
		},
		{
			"type": "Feature",
			"geometry": { "type": "Point", "coordinates": [145.25726, -38.4563] },
			"properties": {
				"@id": "relation/4186309",
				"addr:housenumber": "34-44",
				"addr:street": "Settlement Road",
				"description": "18 hole Par 72",
				"email": "proshop@pigc.com.au",
				"golf:course": "18_hole",
				"golf:par": "72",
				"leisure": "golf_course",
				"name": "Phillip Island Golf Club",
				"phone": "+61 3 5952 1121",
				"sport": "golf",
				"type": "multipolygon",
				"website": "https://www.pigc.com.au/"
			}
		},
		{
			"type": "Feature",
			"geometry": { "type": "Point", "coordinates": [144.90007, -37.77936] },
			"properties": {
				"@id": "relation/4188340",
				"addr:postcode": "3032",
				"addr:street": "Newsom Street",
				"addr:suburb": "Ascot Vale",
				"description": "9 hole Par 34",
				"golf:course": "9_hole",
				"golf:par": "34",
				"leisure": "golf_course",
				"name": "Riverside Golf Course",
				"phone": "+61 3 9938 4545",
				"type": "multipolygon",
				"website": "https://mvcc.vic.gov.au/sportsparkplay/http://www.rgtc.com.au//"
			}
		},
		{
			"type": "Feature",
			"geometry": { "type": "Point", "coordinates": [149.17071, -35.29719] },
			"properties": {
				"@id": "relation/4188375",
				"addr:housenumber": "6",
				"addr:street": "Calculus Lane",
				"description": "18 hole Par 68",
				"golf:course": "18_hole",
				"golf:par": "68",
				"leisure": "golf_course",
				"name": "Royal Military College Golf Club",
				"phone": "+61 2 6265 9620",
				"type": "multipolygon",
				"website": "https://www.rmcgc.com.au/"
			}
		},
		{
			"type": "Feature",
			"geometry": { "type": "Point", "coordinates": [144.95348, -37.78044] },
			"properties": {
				"@id": "relation/4188379",
				"addr:postcode": "3052",
				"addr:street": "The Avenue",
				"addr:suburb": "Parkville",
				"description": "9 hole Par 33, public course",
				"golf:course": "9_hole",
				"golf:par": "33",
				"leisure": "golf_course",
				"name": "Royal Park Golf Course",
				"name:fr": "Terrain de golf du parc royal",
				"phone": "+61 3 8060 6957",
				"type": "multipolygon",
				"website": "http://www.royalparkgolf.com.au/"
			}
		},
		{
			"type": "Feature",
			"geometry": { "type": "Point", "coordinates": [138.78105, -35.51816] },
			"properties": {
				"@id": "relation/4188404",
				"addr:postcode": "5214",
				"addr:street": "Billabong Road",
				"description": "18 hole Par 70",
				"golf:course": "18_hole",
				"golf:par": "70",
				"leisure": "golf_course",
				"name": "South Lakes Golf Club",
				"phone": "+61 8 8555 2299",
				"source": "nearmap",
				"type": "multipolygon",
				"website": "https://www.southlakesgolf.com.au/"
			}
		},
		{
			"type": "Feature",
			"geometry": { "type": "Point", "coordinates": [151.06986, -33.88246] },
			"properties": {
				"@id": "relation/4188406",
				"access": "private",
				"description": "18 hole Par 71",
				"golf:course": "18_hole",
				"golf:par": "71",
				"leisure": "golf_course",
				"name": "Strathfield Golf Course (private)",
				"phone": "+61 2 9642 8642",
				"type": "multipolygon",
				"website": "https://www.strathfieldgolf.com.au/"
			}
		},
		{
			"type": "Feature",
			"geometry": { "type": "Point", "coordinates": [134.21094, -32.79919] },
			"properties": {
				"@id": "relation/4188407",
				"addr:postcode": "5680",
				"addr:street": "Montgomerie Terrace",
				"description": "9 hole Par 36",
				"fixme": "add website",
				"golf:course": "9_hole",
				"golf:par": "36",
				"leisure": "golf_course",
				"name": "Streaky Bay Golf Course",
				"phone": "+61 8 8626 1294",
				"type": "multipolygon"
			}
		},
		{
			"type": "Feature",
			"geometry": { "type": "Point", "coordinates": [149.73531, -34.73532] },
			"properties": {
				"@id": "relation/4188421",
				"addr:housenumber": "38",
				"addr:street": "Chantry Street",
				"description": "12 hole Par 67",
				"golf:course": "12_hole",
				"golf:par": "67",
				"leisure": "golf_course",
				"name": "Tully Park Golf Course",
				"phone": "+61 2 4822 2828",
				"source": "survey;Bing",
				"sport": "golf",
				"type": "multipolygon",
				"website": "http://www.tullyparkgolf.com/"
			}
		},
		{
			"type": "Feature",
			"geometry": { "type": "Point", "coordinates": [149.92433, -36.86259] },
			"properties": {
				"@id": "relation/4188444",
				"addr:housenumber": "4",
				"addr:postcode": "2548",
				"addr:state": "NSW",
				"addr:street": "The Fairway",
				"addr:suburb": "Tura Beach",
				"description": "18 hole Par 73",
				"golf:course": "18_hole",
				"golf:par": "73",
				"leisure": "golf_course",
				"name": "Tura Beach Country Club",
				"phone": "+61 2 6495 9068;+61 2 6495 9002",
				"type": "multipolygon",
				"website": "https://www.turabeachcountryclub.com.au/"
			}
		},
		{
			"type": "Feature",
			"geometry": { "type": "Point", "coordinates": [151.97278, -27.60241] },
			"properties": {
				"@id": "relation/4221224",
				"addr:housenumber": "235 - 323",
				"addr:state": "QLD",
				"addr:street": "Rowbotham Street",
				"description": "18 hole Par 70",
				"golf:course": "18_hole",
				"golf:par": "70",
				"leisure": "golf_course",
				"name": "Toowoomba Golf Club",
				"phone": "+61 7 4635 1219",
				"source": "http://data.australia.gov.au/152",
				"type": "multipolygon",
				"website": "https://www.toowoombagolfclub.com.au/"
			}
		},
		{
			"type": "Feature",
			"geometry": { "type": "Point", "coordinates": [146.03901, -36.00745] },
			"properties": {
				"@id": "relation/4236215",
				"addr:housenumber": "1",
				"addr:street": "Phillip Hyland Drive",
				"addr:suburb": "Yarrawonga",
				"description": "18 hole Par 70",
				"golf:course": "18_hole",
				"golf:par": "70",
				"leisure": "golf_course",
				"name": "Black Bull Golf Course",
				"phone": "+61 3 5744 0044",
				"type": "multipolygon",
				"website": "http://www.blackbullgc.com.au/"
			}
		},
		{
			"type": "Feature",
			"geometry": { "type": "Point", "coordinates": [116.03733, -34.43154] },
			"properties": {
				"@id": "relation/4236312",
				"addr:postcode": "6260",
				"addr:street": "Golf Links Road",
				"description": "18 hole Par 71",
				"fixme": "add website",
				"golf:course": "18_hole",
				"golf:par": "71",
				"leisure": "golf_course",
				"name": "Pemberton Golf Club",
				"phone": "+61 8 9776 1455;+61 8 9776 1261",
				"type": "multipolygon"
			}
		},
		{
			"type": "Feature",
			"geometry": { "type": "Point", "coordinates": [150.78589, -34.08204] },
			"properties": {
				"@id": "relation/4236345",
				"addr:street": "Golf Course Drive",
				"description": "18 hole Par 70",
				"golf:course": "18_hole",
				"golf:par": "70",
				"leisure": "golf_course",
				"name": "Campbelltown Golf Course",
				"phone": "+61 2 4622 2900",
				"type": "multipolygon",
				"website": "https://www.campbelltowngolfclub.com.au/"
			}
		},
		{
			"type": "Feature",
			"geometry": { "type": "Point", "coordinates": [152.89665, -27.66022] },
			"properties": {
				"@id": "relation/4236348",
				"addr:housenumber": "1",
				"addr:postcode": "4300",
				"addr:state": "QLD",
				"addr:street": "Tournament Drive",
				"addr:suburb": "Brookwater",
				"attribution": "Based on data from State of Queensland (Department of Environment and Resource Management) 2009",
				"description": "18 hole Par 72",
				"leisure": "golf_course",
				"name": "Brookwater Golf & Country Club",
				"phone": "+61 7 3814 5500",
				"source": "au.qld.dcdb_lite",
				"type": "multipolygon",
				"website": "https://www.brookwatergolf.com.au"
			}
		},
		{
			"type": "Feature",
			"geometry": { "type": "Point", "coordinates": [145.46775, -17.26552] },
			"properties": {
				"@id": "relation/4236365",
				"addr:postcode": "4883",
				"description": "18 hole Par 70",
				"golf:course": "18_hole",
				"golf:par": "70",
				"leisure": "golf_course",
				"name": "Atherton Golf Course",
				"phone": "+61 7 4091 1283",
				"type": "multipolygon",
				"website": "http://athertongolf.fnqnet.org/"
			}
		},
		{
			"type": "Feature",
			"geometry": { "type": "Point", "coordinates": [145.46211, -16.51259] },
			"properties": {
				"@id": "relation/4236367",
				"addr:postcode": "4877",
				"description": "18 hole Par 72",
				"golf:course": "18_hole",
				"golf:designer": "Peter Thomson",
				"golf:par": "72",
				"leisure": "golf_course",
				"name": "Mirage Country Club",
				"phone": "+61 7 4099 5537;+61 7 4099 5888;+61 7 4099 5488",
				"type": "multipolygon",
				"website": "http://www.sheratonportdouglas.com/miragecountryclub"
			}
		},
		{
			"type": "Feature",
			"geometry": { "type": "Point", "coordinates": [148.66985, -20.60324] },
			"properties": {
				"@id": "relation/4236385",
				"leisure": "golf_course",
				"leisure:disused": "golf_course",
				"name": "Turtle Point Golf Course (closed)",
				"note": "Closed - see http://www.where2golf.com/australia/laguna-whitsundays-turtle-point-course.asp  http://www.savelagunawhitsundays.info/Save_Laguna_Whitsundays",
				"operator": "Laguna Quays Resort",
				"type": "multipolygon"
			}
		},
		{
			"type": "Feature",
			"geometry": { "type": "Point", "coordinates": [151.24666, -33.98674] },
			"properties": {
				"@id": "relation/4237795",
				"addr:postcode": "2036",
				"addr:street": "Jennifer Street",
				"description": "18 hole Par 72",
				"golf:course": "18_hole",
				"golf:par": "72",
				"leisure": "golf_course",
				"name": "St Michael's Golf Club",
				"phone": "+61 2 9311 0068",
				"type": "multipolygon",
				"website": "https://www.stmichaelsgolf.com.au/"
			}
		},
		{
			"type": "Feature",
			"geometry": { "type": "Point", "coordinates": [151.25126, -33.9803] },
			"properties": {
				"@id": "relation/4237853",
				"addr:housenumber": "1",
				"addr:postcode": "2036",
				"addr:street": "Coast Hospital Road",
				"addr:suburb": "Little Bay",
				"description": "18 hole Par 70",
				"email": "office@coastgolf.com.au",
				"golf:course": "18_hole",
				"golf:par": "70",
				"leisure": "golf_course",
				"name": "The Coast Golf Club",
				"phone": "+61 2 9311 7422",
				"source": "Bing",
				"type": "multipolygon",
				"website": "https://www.coastgolf.com.au/"
			}
		},
		{
			"type": "Feature",
			"geometry": { "type": "Point", "coordinates": [117.7357, -33.39008] },
			"properties": {
				"@id": "relation/4238112",
				"addr:postcode": "6350",
				"addr:street": "Dumbleyung-Katanning Road",
				"description": "18 hole Par 72 (Sand Fairways)",
				"fixme": "add website",
				"golf:course": "18_hole",
				"golf:par": "72",
				"leisure": "golf_course",
				"name": "Dumbleyung Golf Club",
				"note": "See e.g. http://www.1golf.eu/club/dumbleyung-golf-club/",
				"phone": "+61 8 9863 4174",
				"surface": "sand",
				"type": "multipolygon"
			}
		},
		{
			"type": "Feature",
			"geometry": { "type": "Point", "coordinates": [117.50719, -32.78268] },
			"properties": {
				"@id": "relation/4238135",
				"addr:postcode": "6370",
				"description": "18 hole Par 72",
				"golf:course": "18_hole",
				"golf:par": "72",
				"leisure": "golf_course",
				"name": "Wickepin Golf Club",
				"phone": "+61 8 9888 1080",
				"type": "multipolygon",
				"website": "https://www.facebook.com/wickepinsportsclub/"
			}
		},
		{
			"type": "Feature",
			"geometry": { "type": "Point", "coordinates": [115.632, -32.61005] },
			"properties": {
				"@id": "relation/4238188",
				"description": "18 hole Par 72",
				"golf:course": "18_hole",
				"leisure": "golf_course",
				"name": "The Cut Golf Course",
				"phone": "+61 8 9582 4422",
				"type": "multipolygon",
				"website": "https://the-cut.com.au/"
			}
		},
		{
			"type": "Feature",
			"geometry": { "type": "Point", "coordinates": [152.65538, -31.88007] },
			"properties": {
				"@id": "relation/4238241",
				"addr:housenumber": "41",
				"addr:postcode": "2427",
				"addr:street": "Josephine Boulevard",
				"golf:course": "9_hole",
				"golf:par": "36",
				"leisure": "golf_course",
				"name": "Harrington Waters Golf Course",
				"phone": "+61 2 6556 0404",
				"sport": "golf",
				"type": "multipolygon",
				"website": "https://www.harringtonwatersgolfclub.com.au"
			}
		},
		{
			"type": "Feature",
			"geometry": { "type": "Point", "coordinates": [153.37619, -28.02703] },
			"properties": {
				"@id": "relation/4238622",
				"addr:housenumber": "1",
				"addr:postcode": "4211",
				"addr:street": "Palm Meadows Drive",
				"description": "18 hole Par 72",
				"golf:course": "18_hole",
				"golf:par": "72",
				"leisure": "golf_course",
				"name": "Palm Meadows Golf Course",
				"phone": "+61 7 5594 2450",
				"type": "multipolygon",
				"website": "https://www.palmmeadows.com.au/"
			}
		},
		{
			"type": "Feature",
			"geometry": { "type": "Point", "coordinates": [152.28623, -27.56003] },
			"properties": {
				"@id": "relation/4238642",
				"addr:postcode": "4343",
				"addr:street": "Woodlands Road",
				"description": "18 hole Par 68",
				"golf:course": "18_hole",
				"golf:par": "68",
				"leisure": "golf_course",
				"name": "Gatton Jubilee Golf Club",
				"phone": "+61 7 5462 1420",
				"source": "AGRI",
				"type": "multipolygon",
				"website": "https://www.gattongolf.com.au/"
			}
		},
		{
			"type": "Feature",
			"geometry": { "type": "Point", "coordinates": [153.09176, -26.55373] },
			"properties": {
				"@id": "relation/4238666",
				"addr:housenumber": "1",
				"addr:postcode": "4573",
				"addr:street": "Warran Road",
				"description": "18 hole Par 72",
				"golf:course": "18_hole",
				"golf:par": "72",
				"leisure": "golf_course",
				"name": "Beachside Championship Golf Course",
				"operator": "Palmer Coolum Resort",
				"phone": "+61 7 5446 1234",
				"phone:AU": "1800 266 586",
				"type": "multipolygon",
				"website": "https://palmercoolumresort.com.au/"
			}
		},
		{
			"type": "Feature",
			"geometry": { "type": "Point", "coordinates": [152.72799, -25.28469] },
			"properties": {
				"@id": "relation/4238704",
				"description": "18 hole Par 68",
				"golf:course": "18_hole",
				"golf:par": "68",
				"leisure": "golf_course",
				"name": "Craignish Country Club",
				"phone": "+61 7 4128 7186",
				"source": "Bing",
				"type": "multipolygon"
			}
		},
		{
			"type": "Feature",
			"geometry": { "type": "Point", "coordinates": [140.60752, -34.26805] },
			"properties": {
				"@id": "relation/4239174",
				"addr:postcode": "5343",
				"addr:street": "Old Sturt Highway",
				"description": "18 hole Par 71",
				"golf:course": "18_hole",
				"golf:par": "71",
				"leisure": "golf_course",
				"name": "Big River Golf and Country Club Berri",
				"phone": "+61 8 8582 3666",
				"type": "multipolygon",
				"website": "https://www.bigrivergolf.com/"
			}
		},
		{
			"type": "Feature",
			"geometry": { "type": "Point", "coordinates": [151.26791, -33.77472] },
			"properties": {
				"@id": "relation/4256845",
				"addr:housenumber": "397",
				"addr:street": "Condamine Street",
				"description": "18 hole Par 70",
				"golf:course": "18_hole",
				"golf:par": "70",
				"leisure": "golf_course",
				"name": "Warringah Golf Club",
				"phone": "+61 2 9905 1326;+61 2 9905 4709",
				"type": "multipolygon",
				"website": "https://www.warringahgolfclub.com.au/"
			}
		},
		{
			"type": "Feature",
			"geometry": { "type": "Point", "coordinates": [150.86241, -33.72348] },
			"properties": {
				"@id": "relation/4257469",
				"addr:housenumber": "86",
				"addr:street": "Stonecutters Drive",
				"description": "18 hole Par 72",
				"email": "reception@srgc.net.au",
				"golf:course": "18_hole",
				"golf:par": "72",
				"leisure": "golf_course",
				"name": "Stonecutters Ridge Golf Club",
				"phone": "+61 2 9627 1816;+61 2 9627 7081",
				"type": "multipolygon",
				"website": "https://www.stonecuttersgc.com.au/"
			}
		},
		{
			"type": "Feature",
			"geometry": { "type": "Point", "coordinates": [151.2925, -32.7801] },
			"properties": {
				"@id": "relation/4263588",
				"addr:postcode": "2320",
				"addr:street": "Thompsons Road",
				"addr:suburb": "Pokolbin",
				"description": "18 hole Par 72",
				"golf:course": "18_hole",
				"golf:par": "72",
				"leisure": "golf_course",
				"name": "Cypress Lakes Golf & Country Club",
				"operator": "golfcypresslakes@theoaksgroup.com.au",
				"phone": "+61 2 4993 1555",
				"source": "nearmap",
				"type": "multipolygon",
				"website": "https://www.cypresslakes.com.au/cms/golf/"
			}
		},
		{
			"type": "Feature",
			"geometry": { "type": "Point", "coordinates": [152.44144, -31.89573] },
			"properties": {
				"@id": "relation/4270398",
				"addr:housenumber": "121",
				"addr:postcode": "2430",
				"addr:street": "Wingham Road",
				"addr:suburb": "Taree",
				"description": "18 hole Par 70",
				"golf:course": "18_hole",
				"golf:par": "70",
				"leisure": "golf_course",
				"name": "Club Taree Golf Course",
				"phone": "+61 2 6539 4000;+61 2 6552 1506",
				"type": "multipolygon",
				"website": "https://tareerslandgolf.com.au/wp/golf-course/"
			}
		},
		{
			"type": "Feature",
			"geometry": { "type": "Point", "coordinates": [153.37606, -28.0021] },
			"properties": {
				"@id": "relation/4282967",
				"description": "3 x 9 hole Par 36 Gold, Green & Blue Course",
				"golf:course": "27_hole",
				"golf:par": "36 + 36 + 36",
				"leisure": "golf_course",
				"name": "RACV Royal Pines Resort Golf Course",
				"phone": "+61 7 5597 8700",
				"phone:AU": "1800 886 880",
				"source": "Bing",
				"sport": "golf",
				"type": "multipolygon",
				"website": "http://www.racv.com.au/wps/wcm/connect/resorts/racv+resorts/racv+royal+pines+resort"
			}
		},
		{
			"type": "Feature",
			"geometry": { "type": "Point", "coordinates": [115.7531, -32.4962] },
			"properties": {
				"@id": "relation/4298420",
				"addr:postcode": "6210",
				"addr:street": "Meadow Springs Drive",
				"description": "18 hole Par 72",
				"email": "golf@msgcc.com.au",
				"golf:course": "18_hole",
				"golf:designer": "Robert Trent Jones Jr.",
				"golf:par": "72",
				"leisure": "golf_course",
				"name": "Meadow Springs Golf & Country Club",
				"phone": "+61 8 9581 6002",
				"sport": "golf",
				"type": "multipolygon",
				"website": "https://www.msgcc.com.au/"
			}
		},
		{
			"type": "Feature",
			"geometry": { "type": "Point", "coordinates": [115.75023, -31.74666] },
			"properties": {
				"@id": "relation/4298556",
				"addr:street": "Country Club Boulevard",
				"description": "3 x 9 hole Par 36 Dune & Lake & Quarry Course",
				"email": "info@joondalupresort.com.au",
				"golf:course": "27_hole",
				"golf:designer": "Robert Trent Jones Jr.",
				"golf:par": "36 + 36 + 36",
				"leisure": "golf_course",
				"name": "Joondalup Resort Golf Course",
				"phone": "+61 8 9400 8811",
				"source": "Yahoo",
				"type": "multipolygon",
				"website": "https://joondalupresort.com.au/golf/"
			}
		},
		{
			"type": "Feature",
			"geometry": { "type": "Point", "coordinates": [147.3808, -40.99752] },
			"properties": {
				"@id": "relation/4471045",
				"leisure": "golf_course",
				"name": "Bridport Golf Club",
				"type": "multipolygon"
			}
		},
		{
			"type": "Feature",
			"geometry": { "type": "Point", "coordinates": [153.14569, -27.02715] },
			"properties": {
				"@id": "relation/4486769",
				"description": "18 hole Par 72",
				"golf:course": "18_hole",
				"golf:par": "72",
				"leisure": "golf_course",
				"name": "Pacific Harbour Golf Club",
				"phone": "+61 7 3410 4001",
				"type": "multipolygon",
				"website": "https://www.pacificharbourgolf.com.au/"
			}
		},
		{
			"type": "Feature",
			"geometry": { "type": "Point", "coordinates": [115.50166, -28.58804] },
			"properties": {
				"@id": "relation/4670278",
				"description": "18 hole Par 72 (Sand Greens)",
				"fixme": "add website",
				"golf:course": "18_hole",
				"golf:par": "72",
				"leisure": "golf_course",
				"name": "Mullewa Golf Course",
				"note": "See e.g. http://www.golfadvisor.com/courses/20019-mullewa-golf-club/",
				"phone": "+61 8 9961 1294",
				"type": "multipolygon"
			}
		},
		{
			"type": "Feature",
			"geometry": { "type": "Point", "coordinates": [152.98048, -31.18851] },
			"properties": {
				"@id": "relation/4763048",
				"description": "6 hole Par 21",
				"golf:course": "6_hole",
				"golf:par": "21",
				"leisure": "golf_course",
				"name": "Crescent Head Country Club",
				"phone": "+61 2 6566 0268",
				"type": "multipolygon",
				"website": "https://www.chcclub.com.au/"
			}
		},
		{
			"type": "Feature",
			"geometry": { "type": "Point", "coordinates": [153.19124, -27.50109] },
			"properties": {
				"@id": "relation/4822910",
				"leisure": "golf_course",
				"name": "Howeston Golf Course",
				"type": "multipolygon"
			}
		},
		{
			"type": "Feature",
			"geometry": { "type": "Point", "coordinates": [145.25181, -38.13658] },
			"properties": {
				"@id": "relation/4830581",
				"leisure": "golf_course",
				"name": "Settlers Run Golf & Country Club",
				"phone": "+61 3 9785 6072",
				"type": "multipolygon",
				"website": "http://www.settlersrun.com.au/"
			}
		},
		{
			"type": "Feature",
			"geometry": { "type": "Point", "coordinates": [151.15094, -33.70141] },
			"properties": {
				"@id": "relation/5372002",
				"description": "18 hole Par 68",
				"golf:course": "18_hole",
				"golf:par": "68",
				"leisure": "golf_course",
				"name": "North Turramurra Golf Course",
				"note": "Recently re-constructed, Par changed to 68, see http://www.kmc.nsw.gov.au/Projects_and_priorities/Development_and_upgrades/North_Turramurra_Recreation_Area_NTRA",
				"phone": "+61 2 9144 5110",
				"type": "multipolygon",
				"website": "http://www.kmc.nsw.gov.au/facilities_data_upload/north_turramurra_golf_course"
			}
		},
		{
			"type": "Feature",
			"geometry": { "type": "Point", "coordinates": [152.89077, -29.82493] },
			"properties": {
				"@id": "relation/5407713",
				"leisure": "golf_course",
				"name": "Orara Park Golf Course",
				"sport": "golf",
				"type": "multipolygon"
			}
		},
		{
			"type": "Feature",
			"geometry": { "type": "Point", "coordinates": [140.7579, -37.84587] },
			"properties": {
				"@id": "relation/5428756",
				"addr:street": "Grant Avenue",
				"description": "18 hole Par 70",
				"email": "bluelake@bluelakepublicgolflinks.com.au",
				"golf:course": "18_hole",
				"golf:par": "70",
				"leisure": "golf_course",
				"name": "Blue Lake Public Golf Links",
				"phone": "+61 8 8725 6198",
				"type": "multipolygon",
				"website": "https://bluelakepublicgolflinks.com.au/"
			}
		},
		{
			"type": "Feature",
			"geometry": { "type": "Point", "coordinates": [147.70678, -35.93067] },
			"properties": {
				"@id": "relation/5456010",
				"addr:street": "Murray River Road",
				"description": "13 hole Par 69",
				"golf:course": "13_hole",
				"golf:par": "69",
				"leisure": "golf_course",
				"name": "Walwa Golf Course",
				"phone": "+61 2 6037 1229;+61 2 6037 1477",
				"type": "multipolygon"
			}
		},
		{
			"type": "Feature",
			"geometry": { "type": "Point", "coordinates": [153.53973, -28.51259] },
			"properties": {
				"@id": "relation/5466172",
				"leisure": "golf_course",
				"name": "Ocean Shores Golf Course",
				"source": "Bing",
				"type": "multipolygon"
			}
		},
		{
			"type": "Feature",
			"geometry": { "type": "Point", "coordinates": [150.79343, -34.01468] },
			"properties": {
				"@id": "relation/5519706",
				"addr:housenumber": "18",
				"addr:street": "Raby Road",
				"description": "18 hole Par 70",
				"golf:course": "18_hole",
				"golf:par": "70",
				"leisure": "golf_course",
				"name": "Macarthur Grange Country Club",
				"phone": "+61 2 9820 4446;+61 2 9820 4599",
				"type": "multipolygon",
				"website": "https://macarthurgrange.com.au/"
			}
		},
		{
			"type": "Feature",
			"geometry": { "type": "Point", "coordinates": [151.27246, -33.72595] },
			"properties": {
				"@id": "relation/5633065",
				"leisure": "golf_course",
				"name": "Cromer Golf Course",
				"type": "multipolygon"
			}
		},
		{
			"type": "Feature",
			"geometry": { "type": "Point", "coordinates": [120.06457, -33.58097] },
			"properties": {
				"@id": "relation/5684349",
				"addr:street": "Hopetoun - Ravensthorpe Road",
				"contact:facebook": "https://www.facebook.com/pages/Ravensthorpe-Golf-and-Bowling-Club/511481942233425",
				"description": "18 hole Par 72 (Sand Greens)",
				"golf:course": "18_hole",
				"golf:par": "72",
				"leisure": "golf_course",
				"name": "Ravensthorpe Golf & Bowling Club",
				"phone": "+61 8 9838 1181",
				"type": "multipolygon"
			}
		},
		{
			"type": "Feature",
			"geometry": { "type": "Point", "coordinates": [151.25521, -33.97204] },
			"properties": {
				"@id": "relation/5702325",
				"addr:housenumber": "1",
				"addr:postcode": "2036",
				"addr:state": "NSW",
				"addr:street": "Howe Street",
				"addr:suburb": "Malabar",
				"description": "18 hole Par 59",
				"golf:course": "18_hole",
				"golf:par": "59",
				"leisure": "golf_course",
				"name": "Randwick Golf Course",
				"operator": "Randwick Golf Club",
				"phone": "+61 2 8347 3733;+61 2 8347 3777",
				"type": "multipolygon",
				"website": "https://www.randwickgolfclub.com.au/"
			}
		},
		{
			"type": "Feature",
			"geometry": { "type": "Point", "coordinates": [151.95145, -28.64572] },
			"properties": {
				"@id": "relation/5999039",
				"description": "9 hole Par 36",
				"golf:course": "9_hole",
				"golf:par": "36",
				"leisure": "golf_course",
				"name": "Stanthorpe Golf Course",
				"note": "See e.g. http://www.ausgolf.com.au/guide/club/StanthorpeGolfClub http://www.worldgolf.com/courses/australia/queensland/stanthorpe-golf-club.html",
				"phone": "+61 7 4681 1276",
				"type": "multipolygon"
			}
		},
		{
			"type": "Feature",
			"geometry": { "type": "Point", "coordinates": [151.33982, -32.82323] },
			"properties": {
				"@id": "relation/6043868",
				"addr:postcode": "2325",
				"addr:street": "Mount View Road",
				"addr:suburb": "Cessnock",
				"description": "18 hole Par 72",
				"email": "golfpro@stonebridgegolf.com.au",
				"golf:course": "18_hole",
				"golf:par": "72",
				"leisure": "golf_course",
				"name": "Stonebridge Golf Club",
				"phone": "+61 2 4990 1633",
				"type": "multipolygon",
				"website": "http://stonebridgegolf.com.au/"
			}
		},
		{
			"type": "Feature",
			"geometry": { "type": "Point", "coordinates": [151.6295, -32.93293] },
			"properties": {
				"@id": "relation/6074872",
				"addr:housenumber": "456",
				"addr:street": "Lake Road",
				"description": "18 hole Par 71",
				"golf:course": "18_hole",
				"golf:par": "71",
				"leisure": "golf_course",
				"name": "Waratah Golf Club",
				"phone": "+61 2 4958 3558;+61 2 4958 1847",
				"sport": "golf",
				"type": "multipolygon",
				"website": "https://www.waratahgolfclub.com.au/"
			}
		},
		{
			"type": "Feature",
			"geometry": { "type": "Point", "coordinates": [151.24191, -23.87649] },
			"properties": {
				"@id": "relation/6090705",
				"description": "18 hole Par 70",
				"golf:course": "18_hole",
				"golf:par": "70",
				"leisure": "golf_course",
				"name": "Gladstone Golf Club (Yaralla Golf Course)",
				"phone": "+61 7 4978 1200",
				"type": "multipolygon",
				"website": "https://yaralla.com.au/gladstone-golf-club/"
			}
		},
		{
			"type": "Feature",
			"geometry": { "type": "Point", "coordinates": [149.47682, -34.46712] },
			"properties": {
				"@id": "relation/6100756",
				"addr:street": "Grange Road",
				"addr:suburb": "Crookwell",
				"contact:facebook": "https://www.facebook.com/CrookwellGolfClub?rf=187939707930794",
				"description": "9 hole Par 35",
				"golf:course": "9_hole",
				"golf:par": "35",
				"leisure": "golf_course",
				"name": "Crookwell Golf Club",
				"note": ", New South Wales ",
				"phone": "+61 2 4832 1323",
				"type": "multipolygon"
			}
		},
		{
			"type": "Feature",
			"geometry": { "type": "Point", "coordinates": [151.20829, -33.7844] },
			"properties": {
				"@id": "relation/6168035",
				"leisure": "golf_course",
				"name": "Castle Cove Golf Club",
				"type": "multipolygon",
				"website": "https://www.castlecovegolf.com.au/"
			}
		},
		{
			"type": "Feature",
			"geometry": { "type": "Point", "coordinates": [151.75541, -32.76598] },
			"properties": {
				"@id": "relation/6196881",
				"leisure": "golf_course",
				"name": "Muree Golf Course",
				"type": "multipolygon"
			}
		},
		{
			"type": "Feature",
			"geometry": { "type": "Point", "coordinates": [151.79777, -32.86875] },
			"properties": {
				"@id": "relation/6287324",
				"leisure": "golf_course",
				"name": "Newcastle Golf Club",
				"sport": "golf",
				"type": "multipolygon"
			}
		},
		{
			"type": "Feature",
			"geometry": { "type": "Point", "coordinates": [152.68439, -25.5339] },
			"properties": {
				"@id": "relation/6314994",
				"addr:street": "Queen Street",
				"description": "18 hole Par 70",
				"golf:course": "18_hole",
				"golf:par": "70",
				"leisure": "golf_course",
				"name": "Maryborough Golf Club",
				"phone": "+61 7 4121 3765;+61 7 4121 3717",
				"source": "bing",
				"type": "multipolygon",
				"website": "https://maryboroughgolfclub.com/"
			}
		},
		{
			"type": "Feature",
			"geometry": { "type": "Point", "coordinates": [150.64946, -33.76412] },
			"properties": {
				"@id": "relation/6530751",
				"leisure": "golf_course",
				"name": "Leonay Golf Course",
				"sport": "golf",
				"type": "multipolygon"
			}
		},
		{
			"type": "Feature",
			"geometry": { "type": "Point", "coordinates": [146.6143, -36.14531] },
			"properties": {
				"@id": "relation/6794332",
				"leisure": "golf_course",
				"name": "Chiltern Golf Course",
				"type": "multipolygon"
			}
		},
		{
			"type": "Feature",
			"geometry": { "type": "Point", "coordinates": [151.32354, -33.58941] },
			"properties": {
				"@id": "relation/6861189",
				"leisure": "golf_course",
				"name": "Palm Beach Golf Course",
				"sport": "golf",
				"type": "multipolygon"
			}
		},
		{
			"type": "Feature",
			"geometry": { "type": "Point", "coordinates": [153.0477, -28.84958] },
			"properties": {
				"@id": "relation/6958065",
				"description": "18 hole Par 70",
				"golf:course": "18_hole",
				"golf:par": "70",
				"leisure": "golf_course",
				"name": "Casino Golf Club",
				"phone": "+61 2 6662 1259;+61 2 6662 4047",
				"source": "bing",
				"type": "multipolygon",
				"website": "https://www.casinogolfclub.com.au"
			}
		},
		{
			"type": "Feature",
			"geometry": { "type": "Point", "coordinates": [159.07719, -31.54621] },
			"properties": {
				"@id": "relation/7113547",
				"description": "9 hole Par 31",
				"golf:course": "9_hole",
				"golf:par": "31",
				"leisure": "golf_course",
				"name": "Lord Howe Island Golf Club",
				"type": "multipolygon",
				"website": "http://lordhowegolf.com.au/"
			}
		},
		{
			"type": "Feature",
			"geometry": { "type": "Point", "coordinates": [138.20684, -33.34504] },
			"properties": {
				"@id": "relation/7240305",
				"addr:street": "Gladstone Road",
				"description": "18 hole course",
				"leisure": "golf_course",
				"name": "Crystal Brook Golf Course",
				"phone": "+61 8 8636 2064",
				"source": "information from previous contributor who did not identify source.",
				"source:geometry": "partly from previous contributor but modified using Mapbox imagery near railway line and park",
				"type": "multipolygon"
			}
		},
		{
			"type": "Feature",
			"geometry": { "type": "Point", "coordinates": [151.31283, -33.50122] },
			"properties": {
				"@id": "relation/7364391",
				"leisure": "golf_course",
				"name": "Everglades Golf Club",
				"source:geometry": "LPI Base Map Feb 2016",
				"type": "multipolygon"
			}
		},
		{
			"type": "Feature",
			"geometry": { "type": "Point", "coordinates": [148.57919, -32.2634] },
			"properties": {
				"@id": "relation/7521237",
				"addr:street": "Newell Highway",
				"addr:suburb": "Dubbo",
				"description": "18 hole Par 71 & 9 hole Par 35",
				"email": "admin@dubbogolfclub.com.au",
				"golf:course": "27_hole",
				"golf:par": "71 + 35",
				"leisure": "golf_course",
				"name": "Dubbo Golf Club",
				"phone": "+61 2 6882 2201;+61 2 6882 1255",
				"type": "multipolygon",
				"website": "https://www.dubbogolfclub.com.au/"
			}
		},
		{
			"type": "Feature",
			"geometry": { "type": "Point", "coordinates": [150.93413, -33.80178] },
			"properties": {
				"@id": "relation/7592402",
				"leisure": "golf_course",
				"name": "Fox Hills Golf Course",
				"type": "multipolygon"
			}
		},
		{
			"type": "Feature",
			"geometry": { "type": "Point", "coordinates": [144.99588, -38.32275] },
			"properties": {
				"@id": "relation/7634905",
				"addr:housenumber": "10B",
				"addr:street": "Country Club Drive",
				"golf:course": "18_hole",
				"golf:par": "67",
				"leisure": "golf_course",
				"name": "Safety Beach Golf Club",
				"phone": "+61 3 5981 0100",
				"source": "Bing",
				"type": "multipolygon",
				"website": "https://safetybeachcountryclub.com.au/"
			}
		},
		{
			"type": "Feature",
			"geometry": { "type": "Point", "coordinates": [144.99616, -37.39587] },
			"properties": {
				"@id": "relation/7634913",
				"description": "18 hole par 72",
				"golf:course": "18_hole",
				"golf:designer": "Craig Perry",
				"golf:par": "72",
				"leisure": "golf_course",
				"name": "Hidden Valley Golf & Country Club",
				"phone": "+61 3 5783 0200",
				"type": "multipolygon",
				"website": "http://www.hiddenvalleygolf.com.au/home"
			}
		},
		{
			"type": "Feature",
			"geometry": { "type": "Point", "coordinates": [150.62574, -35.10055] },
			"properties": {
				"@id": "relation/7634932",
				"description": "18 hole Par 72",
				"golf:course": "18_hole",
				"golf:par": "72",
				"leisure": "golf_course",
				"name": "St Georges Basin Country Club",
				"phone": "+61 2 4443 0836",
				"type": "multipolygon",
				"website": "https://thecountryclub.com.au/"
			}
		},
		{
			"type": "Feature",
			"geometry": { "type": "Point", "coordinates": [151.27601, -33.7866] },
			"properties": {
				"@id": "relation/7894056",
				"leisure": "golf_course",
				"name": "Manly Golf Club",
				"phone": "+61 2 9907 9553",
				"sport": "golf",
				"type": "multipolygon",
				"website": "https://www.manlygolf.com.au/"
			}
		},
		{
			"type": "Feature",
			"geometry": { "type": "Point", "coordinates": [150.08238, -34.7167] },
			"properties": {
				"@id": "relation/8025363",
				"access": "private",
				"leisure": "golf_course",
				"operator": "Tallong Park Association",
				"type": "multipolygon"
			}
		},
		{
			"type": "Feature",
			"geometry": { "type": "Point", "coordinates": [151.733, -32.94051] },
			"properties": {
				"@id": "relation/8094973",
				"addr:housenumber": "40",
				"addr:street": "King Street",
				"description": "18 hole Par 70",
				"golf:course": "18_hole",
				"golf:par": "70",
				"leisure": "golf_course",
				"name": "Merewether Golf Course",
				"phone": "+61 2 4963 1869",
				"type": "multipolygon",
				"website": "https://www.merewethergolf.com.au/"
			}
		},
		{
			"type": "Feature",
			"geometry": { "type": "Point", "coordinates": [151.87031, -32.7653] },
			"properties": {
				"@id": "relation/8188992",
				"leisure": "golf_course",
				"name": "Pacific Dunes Golf Course",
				"type": "multipolygon"
			}
		},
		{
			"type": "Feature",
			"geometry": { "type": "Point", "coordinates": [151.65973, -33.05807] },
			"properties": {
				"@id": "relation/8302309",
				"leisure": "golf_course",
				"name": "Belmont Golf Club",
				"type": "multipolygon"
			}
		},
		{
			"type": "Feature",
			"geometry": { "type": "Point", "coordinates": [148.64557, -32.74104] },
			"properties": {
				"@id": "relation/9256838",
				"leisure": "golf_course",
				"name": "Yeoval Golf Course",
				"type": "multipolygon"
			}
		},
		{
			"type": "Feature",
			"geometry": { "type": "Point", "coordinates": [147.31651, -42.83915] },
			"properties": {
				"@id": "relation/9518950",
				"leisure": "golf_course",
				"name": "New Town Bay Golf Course",
				"sport": "golf",
				"type": "multipolygon"
			}
		},
		{
			"type": "Feature",
			"geometry": { "type": "Point", "coordinates": [148.36844, -30.94921] },
			"properties": {
				"@id": "relation/9668521",
				"boundary": "leisure",
				"leisure": "golf_course",
				"name": "Coonamble Golf Course",
				"source": "NSW_LPI_Imagery",
				"type": "boundary"
			}
		},
		{
			"type": "Feature",
			"geometry": { "type": "Point", "coordinates": [151.43876, -33.28483] },
			"properties": {
				"@id": "relation/11085465",
				"leisure": "golf_course",
				"name": "Kooindah Waters Golf Course",
				"type": "multipolygon"
			}
		},
		{
			"type": "Feature",
			"geometry": { "type": "Point", "coordinates": [145.36656, -36.35797] },
			"properties": {
				"@id": "relation/11275923",
				"leisure": "golf_course",
				"name": "Shepparton Golf Club",
				"type": "multipolygon",
				"website": "https://www.sheppartongolf.net.au/"
			}
		},
		{
			"type": "Feature",
			"geometry": { "type": "Point", "coordinates": [149.10841, -35.33067] },
			"properties": {
				"@id": "relation/11292090",
				"leisure": "golf_course",
				"name": "Federal Golf Club",
				"type": "multipolygon"
			}
		},
		{
			"type": "Feature",
			"geometry": { "type": "Point", "coordinates": [146.37281, -36.03997] },
			"properties": {
				"@id": "relation/11961367",
				"addr:postcode": "2646",
				"addr:street": "Hume Street",
				"description": "18 hole Par 73 + 9 hole Par 36",
				"golf:course": "27_hole",
				"golf:par": "73 + 36",
				"leisure": "golf_course",
				"name": "Corowa Golf Course",
				"phone": "+61 2 6033 1466",
				"type": "multipolygon",
				"website": "http://corowagolf.com.au/"
			}
		},
		{
			"type": "Feature",
			"geometry": { "type": "Point", "coordinates": [142.4629, -32.38109] },
			"properties": {
				"@id": "relation/12098399",
				"leisure": "golf_course",
				"name": "Menindee Golf Club",
				"type": "multipolygon"
			}
		},
		{
			"type": "Feature",
			"geometry": { "type": "Point", "coordinates": [145.23633, -36.43232] },
			"properties": {
				"@id": "relation/12119958",
				"leisure": "golf_course",
				"name": "Hill Top Golf and Country Club",
				"type": "multipolygon"
			}
		},
		{
			"type": "Feature",
			"geometry": { "type": "Point", "coordinates": [150.4625, -34.44137] },
			"properties": {
				"@id": "relation/12657507",
				"addr:postcode": "2575",
				"addr:state": "NSW",
				"addr:street": "Hume Highway",
				"addr:suburb": "Mittagong",
				"golf:course": "18_hole",
				"golf:par": "71",
				"leisure": "golf_course",
				"name": "Highlands Golf Club",
				"phone": "+61 2 4871 1995",
				"type": "multipolygon",
				"website": "https://www.highlandsgolfclub.com.au/"
			}
		},
		{
			"type": "Feature",
			"geometry": { "type": "Point", "coordinates": [151.1286, -33.75025] },
			"properties": {
				"@id": "relation/12733778",
				"addr:street": "Avon Road",
				"description": "18 hole Par 71",
				"golf:course": "18_hole",
				"golf:par": "71",
				"leisure": "golf_course",
				"name": "Avondale Golf Club",
				"phone": "+61 2 9449 6455",
				"type": "multipolygon",
				"website": "https://www.avondalegolfclub.com.au/"
			}
		},
		{
			"type": "Feature",
			"geometry": { "type": "Point", "coordinates": [141.91046, -34.10225] },
			"properties": {
				"@id": "relation/12835588",
				"addr:street": "Beverly Street",
				"addr:town": "Wentworth",
				"description": "18 hole Par 71",
				"golf:course": "18_hole",
				"golf:par": "71",
				"leisure": "golf_course",
				"name": "Wentworth Golf Course",
				"operator": "Wentworth Services",
				"phone": "+61 3 5027 3244",
				"source": "previous contributor",
				"source:geometry": "Bing",
				"type": "multipolygon"
			}
		},
		{
			"type": "Feature",
			"geometry": { "type": "Point", "coordinates": [150.36425, -33.69972] },
			"properties": {
				"@id": "relation/12893917",
				"leisure": "golf_course",
				"name": "Wentworth Falls Country Club",
				"type": "multipolygon"
			}
		},
		{
			"type": "Feature",
			"geometry": { "type": "Point", "coordinates": [153.13515, -30.26653] },
			"properties": {
				"@id": "relation/13209503",
				"leisure": "golf_course",
				"name": "Pacific Bay Resort Golf Course",
				"type": "multipolygon"
			}
		},
		{
			"type": "Feature",
			"geometry": { "type": "Point", "coordinates": [145.04642, -37.21504] },
			"properties": {
				"@id": "relation/13364106",
				"leisure": "golf_course",
				"name": "Broadford Golf Club",
				"source": "nearmap",
				"type": "multipolygon"
			}
		},
		{
			"type": "Feature",
			"geometry": { "type": "Point", "coordinates": [145.20719, -38.37096] },
			"properties": {
				"@id": "relation/13392834",
				"leisure": "golf_course",
				"name": "Cerberus Golf Club",
				"source": "Bing",
				"type": "multipolygon"
			}
		},
		{
			"type": "Feature",
			"geometry": { "type": "Point", "coordinates": [153.09572, -27.44105] },
			"properties": {
				"@id": "relation/13987567",
				"leisure": "golf_course",
				"name": "Royal Queensland Golf Club",
				"type": "multipolygon"
			}
		},
		{
			"type": "Feature",
			"geometry": { "type": "Point", "coordinates": [143.84778, -39.89693] },
			"properties": {
				"@id": "relation/14005760",
				"golf": "rough",
				"leisure": "golf_course",
				"surface": "grass",
				"type": "multipolygon"
			}
		},
		{
			"type": "Feature",
			"geometry": { "type": "Point", "coordinates": [146.4526, -36.05581] },
			"properties": {
				"@id": "relation/14074197",
				"addr:housenumber": "190",
				"addr:postcode": "3685",
				"addr:street": "Murray Street",
				"addr:suburb": "Rutherglen",
				"description": "18 hole Par 69",
				"golf:course": "18_hole",
				"golf:par": "69",
				"leisure": "golf_course",
				"name": "Rutherglen Golf Club",
				"phone": "+61 2 6032 9735",
				"type": "multipolygon",
				"website": "https://www.rutherglengolfclub.com.au/"
			}
		},
		{
			"type": "Feature",
			"geometry": { "type": "Point", "coordinates": [144.74031, -36.13208] },
			"properties": {
				"@id": "relation/14320287",
				"leisure": "golf_course",
				"name": "Echuca Back Nine Golf Course",
				"source:name": "VicNames Register of Geographic Names",
				"type": "multipolygon"
			}
		},
		{
			"type": "Feature",
			"geometry": { "type": "Point", "coordinates": [149.86974, -36.66833] },
			"properties": {
				"@id": "relation/14402718",
				"leisure": "golf_course",
				"name": "Bega Country Club",
				"type": "multipolygon"
			}
		},
		{
			"type": "Feature",
			"geometry": { "type": "Point", "coordinates": [145.09198, -37.91558] },
			"properties": {
				"@id": "relation/15074833",
				"addr:postcode": "3167",
				"addr:street": "Golf Road",
				"description": "18 hole Par 72",
				"golf:course": "18_hole",
				"golf:par": "73",
				"leisure": "golf_course",
				"name": "The Metropolitan Golf Club",
				"phone": "+61 3 9570 3774",
				"type": "multipolygon",
				"website": "https://www.metropolitangolf.com.au/",
				"wikidata": "Q16895074"
			}
		},
		{
			"type": "Feature",
			"geometry": { "type": "Point", "coordinates": [149.03794, -35.38985] },
			"properties": {
				"@id": "relation/15074966",
				"addr:street": "Kambah pool Road",
				"description": "18 hole Par 72",
				"landuse": "grass",
				"leisure": "golf_course",
				"name": "Murrumbidgee Golf Club",
				"phone": "+61 2 6296 2311;+61 2 6296 2888",
				"sport": "golf",
				"type": "multipolygon",
				"website": "https://www.murrumbidgeegolf.com.au/"
			}
		},
		{
			"type": "Feature",
			"geometry": { "type": "Point", "coordinates": [153.48371, -28.80615] },
			"properties": {
				"@id": "relation/15422721",
				"addr:housenumber": "1684",
				"addr:postcode": "2478",
				"addr:street": "Eltham Road",
				"addr:suburb": "Teven",
				"leisure": "golf_course",
				"name": "Teven Valley Golf Course",
				"opening_hours": "Mo-Su 07:30-16:00",
				"type": "multipolygon",
				"website": "https://tevenvalleygolfcourse.com.au/"
			}
		},
		{
			"type": "Feature",
			"geometry": { "type": "Point", "coordinates": [147.31358, -35.11928] },
			"properties": {
				"@id": "relation/15508187",
				"addr:street": "Bagley Drive",
				"golf:course": "18_hole",
				"golf:par": "72",
				"leisure": "golf_course",
				"name": "Wagga City Golf Club",
				"phone": "+61 2 6931 6275",
				"start_date": "1982-03-13",
				"type": "multipolygon",
				"website": "https://www.waggagolf.com.au"
			}
		},
		{
			"type": "Feature",
			"geometry": { "type": "Point", "coordinates": [115.74072, -32.36462] },
			"properties": {
				"@id": "relation/15666502",
				"addr:housenumber": "Lot 199",
				"addr:postcode": "6172",
				"addr:street": "Port Kennedy Drive",
				"description": "18 hole Par 72",
				"email": "admin@kennedybay.com.au",
				"golf:course": "18_hole",
				"golf:par": "72",
				"leisure": "golf_course",
				"name": "The Links Kennedy Bay",
				"phone": "+61 8 9524 5991",
				"sport": "golf",
				"type": "multipolygon",
				"website": "https://www.kennedybay.com.au/"
			}
		},
		{
			"type": "Feature",
			"geometry": { "type": "Point", "coordinates": [150.85144, -34.60306] },
			"properties": {
				"@id": "relation/15952032",
				"addr:postcode": "2529",
				"addr:street": "Southern Cross Boulevarde",
				"addr:suburb": "Shell Cove",
				"description": "18 hole Par 71",
				"golf:course": "18_hole",
				"golf:par": "71",
				"leisure": "golf_course",
				"name": "The Links Shell Cove",
				"phone": "+61 2 4237 5955",
				"sport": "golf",
				"type": "multipolygon",
				"website": "https://www.linksshellcove.com.au/"
			}
		},
		{
			"type": "Feature",
			"geometry": { "type": "Point", "coordinates": [138.31701, -35.45909] },
			"properties": { "@id": "relation/16170158", "leisure": "golf_course", "type": "multipolygon" }
		},
		{
			"type": "Feature",
			"geometry": { "type": "Point", "coordinates": [152.97172, -27.23094] },
			"properties": {
				"@id": "relation/16233650",
				"leisure": "golf_course",
				"name": "Pine Rivers Golf Club",
				"type": "multipolygon",
				"website": "https://www.pineriversgolfclub.com.au/"
			}
		},
		{
			"type": "Feature",
			"geometry": { "type": "Point", "coordinates": [153.01937, -30.49128] },
			"properties": {
				"@id": "relation/16634165",
				"leisure": "golf_course",
				"name": "Urunga Golf Club",
				"source": "local_knowledge",
				"start_date": "1923",
				"type": "multipolygon"
			}
		},
		{
			"type": "Feature",
			"geometry": { "type": "Point", "coordinates": [136.7708, -12.17039] },
			"properties": {
				"@id": "relation/17644524",
				"leisure": "golf_course",
				"name": "Gove Country Golf Club",
				"type": "multipolygon"
			}
		},
		{
			"type": "Feature",
			"geometry": { "type": "Point", "coordinates": [144.55855, -37.79127] },
			"properties": {
				"@id": "relation/17837798",
				"leisure": "golf_course",
				"name": "Eynesbury Golf Course",
				"type": "multipolygon"
			}
		},
		{
			"type": "Feature",
			"geometry": { "type": "Point", "coordinates": [152.32343, -24.85522] },
			"properties": {
				"@id": "relation/18727982",
				"addr:housenumber": "22",
				"addr:postcode": "4670",
				"addr:street": "One Mile Road",
				"description": "18 hole Par 71",
				"leisure": "golf_course",
				"name": "Bundaberg Golf Course",
				"phone": "+61 7 4151 6706;+61 7 4152 6765",
				"source": "Yahoo Imagery",
				"type": "multipolygon",
				"website": "https://bundaberggolfclub.com.au/"
			}
		},
		{
			"type": "Feature",
			"geometry": { "type": "Point", "coordinates": [143.72176, -36.85549] },
			"properties": {
				"@id": "relation/18795080",
				"leisure": "golf_course",
				"name": "Dunolly Golf Club",
				"type": "multipolygon"
			}
		},
		{
			"type": "Feature",
			"geometry": { "type": "Point", "coordinates": [116.02081, -31.93787] },
			"properties": {
				"@id": "relation/19220419",
				"leisure": "golf_course",
				"name": "Hillview Golf Course",
				"sport": "golf",
				"type": "multipolygon"
			}
		},
		{
			"type": "Feature",
			"geometry": { "type": "Point", "coordinates": [150.36639, -32.13983] },
			"properties": {
				"@id": "relation/19227968",
				"leisure": "golf_course",
				"name": "Merriwa Golf Course",
				"type": "multipolygon"
			}
		},
		{
			"type": "Feature",
			"geometry": { "type": "Point", "coordinates": [152.53011, -32.187] },
			"properties": {
				"@id": "relation/19267222",
				"addr:postcode": "2428",
				"addr:state": "NSW",
				"addr:street": "Strand Street",
				"addr:suburb": "Forster",
				"email": "admin@ftgc.com.au",
				"leisure": "golf_course",
				"name": "Forster Tuncurry Golf Course",
				"phone": "+61 2 6554 6799",
				"sport": "golf",
				"type": "multipolygon",
				"website": "https://www.forstertuncurrygolf.com.au/"
			}
		},
		{
			"type": "Feature",
			"geometry": { "type": "Point", "coordinates": [149.67063, -23.72354] },
			"properties": {
				"@id": "relation/19722842",
				"leisure": "golf_course",
				"name": "Duaringa Golf Course",
				"type": "multipolygon"
			}
		},
		{
			"type": "Feature",
			"geometry": { "type": "Point", "coordinates": [147.64621, -37.80104] },
			"properties": {
				"@id": "relation/19872400",
				"addr:postcode": "3875",
				"addr:street": "Balfours Road",
				"description": "9 hole Par 30",
				"fixme": "add website",
				"golf:course": "9_hole",
				"golf:par": "30",
				"leisure": "golf_course",
				"name": "Goose Gully Golf Course",
				"phone": "+61 3 5152 4822",
				"source": "Bing",
				"type": "multipolygon"
			}
		},
		{
			"type": "Feature",
			"geometry": { "type": "Point", "coordinates": [148.10195, -35.06879] },
			"properties": {
				"@id": "relation/20059377",
				"description": "18 hole Par 70",
				"golf:course": "18_hole",
				"golf:par": "70",
				"leisure": "golf_course",
				"name": "Gundagai Golf Club",
				"phone": "+61 2 6944 1926",
				"type": "multipolygon",
				"website": "https://www.gundagaiservicesclub.com.au/sporting/bidgee-banks-golf/"
			}
		},
		{
			"type": "Feature",
			"geometry": { "type": "Point", "coordinates": [151.94524, -27.58062] },
			"properties": {
				"@id": "way/4018600",
				"leisure": "golf_course",
				"name": "City Golf Club",
				"source": "http://data.australia.gov.au/152",
				"sport": "golf"
			}
		},
		{
			"type": "Feature",
			"geometry": { "type": "Point", "coordinates": [151.21574, -33.82542] },
			"properties": {
				"@id": "way/4292638",
				"layer": "-2",
				"leisure": "golf_course",
				"name": "Cammeray Golf Course",
				"source": "nearmap",
				"website": "https://cammeraygolf.com.au/"
			}
		},
		{
			"type": "Feature",
			"geometry": { "type": "Point", "coordinates": [151.56776, -33.03225] },
			"properties": {
				"@id": "way/4295264",
				"addr:postcode": "2283",
				"addr:street": "Wangi Road",
				"description": "18 hole Par 71",
				"golf:course": "18_hole",
				"golf:par": "71",
				"leisure": "golf_course",
				"name": "Toronto Country Club",
				"phone": "+61 2 4959 5063;+61 2 4959 1584",
				"website": "https://www.torontocc.com.au/"
			}
		},
		{
			"type": "Feature",
			"geometry": { "type": "Point", "coordinates": [152.14886, -32.72671] },
			"properties": {
				"@id": "way/4296511",
				"addr:postcode": "2315",
				"addr:street": "Dowling Street",
				"addr:suburb": "Nelson Bay",
				"description": "3 x 9 hole Par 36",
				"email": "golfclub@nelsonbaygolf.com.au",
				"golf:course": "27_hole",
				"golf:par": "36 + 36 + 36",
				"leisure": "golf_course",
				"name": "Nelson Bay Golf Club",
				"phone": "+61 2 4981 1132",
				"website": "https://www.nelsonbaygolf.com/"
			}
		},
		{
			"type": "Feature",
			"geometry": { "type": "Point", "coordinates": [152.18146, -32.66537] },
			"properties": {
				"@id": "way/4296660",
				"addr:street": "Sanderling Avenue",
				"description": "18 hole Par 72 - \"Scenic 'A' grade 18 holes is a testing course offering a challenging yet enjoyable game on its easy walking 6058 metre par 72, surrounded by lush vegetation and an abundance of wildlife\"",
				"golf:course": "18_hole",
				"golf:par": "72",
				"leisure": "golf_course",
				"name": "Hawks Nest Golf Club",
				"phone": "+61 2 4997 0145",
				"sport": "golf",
				"website": "https://www.hawksnestgolfclub.com.au/"
			}
		},
		{
			"type": "Feature",
			"geometry": { "type": "Point", "coordinates": [152.50001, -32.1535] },
			"properties": {
				"@id": "way/4297033",
				"description": "18 hole Par 72 Tuncurry Course",
				"golf:course": "18_hole",
				"golf:par": "72",
				"leisure": "golf_course",
				"name": "Tuncurry Golf Course",
				"operator": "Forster Tuncurry Golf Club",
				"phone": "+61 2 6554 7622",
				"website": "https://www.forstertuncurrygolf.com.au"
			}
		},
		{
			"type": "Feature",
			"geometry": { "type": "Point", "coordinates": [153.11518, -30.30842] },
			"properties": {
				"@id": "way/4298528",
				"addr:postcode": "2450",
				"addr:street": "Earl Street",
				"addr:suburb": "Coffs Harbour",
				"description": "18 hole Par 72 Lakes Course & 9 hole Par 34 East Course",
				"golf:course": "27_hole",
				"golf:par": "72 + 34",
				"leisure": "golf_course",
				"name": "Coffs Harbour Golf Club",
				"phone": "+61 2 6652 3244",
				"source": "landsat",
				"website": "https://www.coffsharbourgolfclub.com.au/"
			}
		},
		{
			"type": "Feature",
			"geometry": { "type": "Point", "coordinates": [153.19296, -30.05008] },
			"properties": {
				"@id": "way/4298701",
				"description": "9 hole",
				"leisure": "golf_course",
				"name": "Darlington Beach Holiday Park Golf Course",
				"opening_hours": "\"By booking\"",
				"operator": "NRMA Darlington Beach Resort and Holiday Park",
				"phone": "+61 2 6640 7444",
				"source": "http://www.darlingtonbeach.com.au/park-facilities/",
				"website": "https://www.nrmaparksandresorts.com.au/darlington-beach/"
			}
		},
		{
			"type": "Feature",
			"geometry": { "type": "Point", "coordinates": [153.35876, -29.44378] },
			"properties": {
				"@id": "way/4298759",
				"leisure": "golf_course",
				"name": "Yamba Golf & Country Club",
				"source": "Bing",
				"website": "https://yambagolf.com.au"
			}
		},
		{
			"type": "Feature",
			"geometry": { "type": "Point", "coordinates": [153.60772, -28.67347] },
			"properties": {
				"@id": "way/4302019",
				"leisure": "golf_course",
				"name": "Byron Bay Golf Club",
				"source": "landsat"
			}
		},
		{
			"type": "Feature",
			"geometry": { "type": "Point", "coordinates": [151.21556, -33.91716] },
			"properties": {
				"@id": "way/4331682",
				"access": "private",
				"addr:housenumber": "53",
				"addr:street": "Bannerman Crescent",
				"description": "18 hole Par 72",
				"golf:course": "18_hole",
				"golf:par": "72",
				"leisure": "golf_course",
				"name": "The Australian Golf Club",
				"phone": "+61 2 9663 2273",
				"website": "https://www.australiangolfclub.com/",
				"wikidata": "Q14935016",
				"wikipedia": "en:The Australian Golf Club"
			}
		},
		{
			"type": "Feature",
			"geometry": { "type": "Point", "coordinates": [151.30934, -33.74116] },
			"properties": {
				"@id": "way/4334845",
				"addr:postcode": "2097",
				"addr:state": "NSW",
				"addr:street": "Anzac Avenue",
				"addr:suburb": "Collaroy",
				"leisure": "golf_course",
				"name": "Long Reef Golf Course",
				"sport": "golf"
			}
		},
		{
			"type": "Feature",
			"geometry": { "type": "Point", "coordinates": [151.3077, -33.68197] },
			"properties": {
				"@id": "way/4334962",
				"leisure": "golf_course",
				"name": "Mona Vale Golf Course",
				"source:boundary": "some from LPI Base Map Aug 2018",
				"sport": "golf"
			}
		},
		{
			"type": "Feature",
			"geometry": { "type": "Point", "coordinates": [151.32979, -33.64035] },
			"properties": {
				"@id": "way/4335011",
				"addr:housenumber": "32",
				"addr:street": "Old Barrenjoey Road",
				"description": "9 hole Par 32",
				"email": "info@avalongolfcourse.com.au",
				"golf:course": "9_hole",
				"golf:par": "32",
				"leisure": "golf_course",
				"name": "Avalon Golf Course",
				"phone": "+61 2 9918 2606",
				"sport": "golf",
				"website": "https://www.avalongolfcourse.com.au/"
			}
		},
		{
			"type": "Feature",
			"geometry": { "type": "Point", "coordinates": [151.11644, -33.68298] },
			"properties": {
				"@id": "way/4336031",
				"addr:street": "Lord Street",
				"description": "18 hole Par 70",
				"email": "office@asquithgolfclub.com.au",
				"golf:course": "18_hole",
				"golf:par": "70",
				"leisure": "golf_course",
				"name": "Asquith Golf Club",
				"phone": "+61 2 9477 1403;+61 2 9477 1266",
				"sport": "golf",
				"website": "https://www.asquithgolfclub.com.au/"
			}
		},
		{
			"type": "Feature",
			"geometry": { "type": "Point", "coordinates": [151.26715, -33.87688] },
			"properties": {
				"@id": "way/4354373",
				"access": "private",
				"addr:postcode": "2029",
				"addr:state": "NSW",
				"addr:street": "Kent Road",
				"addr:suburb": "Rose Bay",
				"description": "18 hole Par 72 Championship Course & 9 hole Par 33 Centenary Course",
				"golf:course": "27_hole",
				"golf:par": "72 + 33",
				"leisure": "golf_course",
				"name": "Royal Sydney Golf Club",
				"note": "reception@rsgc.com.au",
				"phone": "+61 2 8362 7075;+61 2 8362 7000",
				"website": "https://www.rsgc.com.au/",
				"wikidata": "Q16956691",
				"wikipedia": "en:Royal Sydney Golf Club"
			}
		},
		{
			"type": "Feature",
			"geometry": { "type": "Point", "coordinates": [150.76189, -33.60356] },
			"properties": {
				"@id": "way/4367635",
				"addr:housenumber": "34",
				"addr:postcode": "2753",
				"addr:street": "Bourke Street",
				"addr:suburb": "Richmond",
				"description": "18 hole Par 70",
				"email": "admin@richmondgolfclub.com.au",
				"golf:course": "18_hole",
				"golf:par": "70",
				"leisure": "golf_course",
				"name": "Richmond Golf Club",
				"phone": "+61 2 4578 1739;+61 2 4578 2272",
				"website": "https://www.richmondgolfclub.com.au/"
			}
		},
		{
			"type": "Feature",
			"geometry": { "type": "Point", "coordinates": [150.97873, -33.9218] },
			"properties": {
				"@id": "way/4388451",
				"addr:housenumber": "255",
				"addr:street": "Henry Lawson Drive",
				"description": "18 hole Par 70",
				"golf:course": "18_hole",
				"golf:par": "70",
				"leisure": "golf_course",
				"name": "Georges River Golf Course",
				"phone": "+61 2 9724 1615",
				"website": "https://georgesrivergolf.com.au/"
			}
		},
		{
			"type": "Feature",
			"geometry": { "type": "Point", "coordinates": [150.97242, -33.94346] },
			"properties": {
				"@id": "way/4389097",
				"disused:landuse": "recreation_ground",
				"leisure": "golf_course",
				"name": "Riverlands Golf Course (closed)",
				"note": "Riverlands Golf course was acquired by Mirvac\nhttps://www.mirvac.com/investor-centre/property-portfolio/Residential/riverlands\nThere are development plans lodged with Canterbery Bankstown council - https://haveyoursay.cbcity.nsw.gov.au/development-applica",
				"operator": "Mirvac"
			}
		},
		{
			"type": "Feature",
			"geometry": { "type": "Point", "coordinates": [152.08034, -32.73843] },
			"properties": {
				"@id": "way/4663739",
				"addr:street": "Horizons Drive",
				"description": "18 hole Par 72",
				"golf:course": "18_hole",
				"golf:par": "72",
				"leisure": "golf_course",
				"name": "Horizons Golf Course",
				"operator": "5",
				"phone": "+61 2 4982 0474",
				"website": "https://horizons.com.au"
			}
		},
		{
			"type": "Feature",
			"geometry": { "type": "Point", "coordinates": [115.85254, -31.98285] },
			"properties": {
				"@id": "way/4755357",
				"access": "private",
				"addr:country": "AU",
				"addr:postcode": "6151",
				"addr:state": "WA",
				"addr:street": "Labouchere Road",
				"addr:suburb": "South Perth",
				"description": "18 hole Par 72",
				"email": "frontdesk@rpgc.com.au",
				"golf:course": "18_hole",
				"golf:par": "72",
				"leisure": "golf_course",
				"name": "Royal Perth Golf Club",
				"phone": "+61 8 6436 4900",
				"sport": "golf",
				"website": "https://www.rpgc.com.au/",
				"wikidata": "Q2119976",
				"wikipedia": "en:Royal Perth Golf Club"
			}
		},
		{
			"type": "Feature",
			"geometry": { "type": "Point", "coordinates": [145.11609, -37.8715] },
			"properties": {
				"@id": "way/4775749",
				"leisure": "golf_course",
				"name": "Riversdale Golf Club",
				"website": "https://www.riversdalegolf.com.au/"
			}
		},
		{
			"type": "Feature",
			"geometry": { "type": "Point", "coordinates": [138.48611, -34.77943] },
			"properties": {
				"@id": "way/4853070",
				"description": "9 hole Par 34",
				"golf:course": "9_hole",
				"golf:par": "34",
				"leisure": "golf_course",
				"name": "North Haven Golf Club",
				"phone": "+61 8 8248 3832",
				"source": "bing",
				"website": "http://www.btmgolf.com.au/new_nth_haven_home/"
			}
		},
		{
			"type": "Feature",
			"geometry": { "type": "Point", "coordinates": [115.76788, -31.96832] },
			"properties": {
				"@id": "way/4956466",
				"leisure": "golf_course",
				"name": "Cottesloe Golf Course"
			}
		},
		{
			"type": "Feature",
			"geometry": { "type": "Point", "coordinates": [115.93181, -32.09309] },
			"properties": {
				"@id": "way/4978603",
				"addr:housenumber": "95",
				"addr:postcode": "6155",
				"addr:state": "WA",
				"addr:street": "Sandringham Promenade",
				"addr:suburb": "Canning Vale",
				"golf:course": "18_hole",
				"leisure": "golf_course",
				"name": "Gosnells Golf Course",
				"sport": "golf",
				"website": "https://www.gosnellsgc.com.au/"
			}
		},
		{
			"type": "Feature",
			"geometry": { "type": "Point", "coordinates": [115.78506, -31.86519] },
			"properties": {
				"@id": "way/4979740",
				"addr:street": "North Beach Road",
				"leisure": "golf_course",
				"name": "Lake Karrinyup Country Club",
				"phone": "+61 8 9422 8222",
				"website": "https://www.lkcc.com.au/",
				"wikidata": "Q2357884",
				"wikipedia": "en:Lake Karrinyup Country Club"
			}
		},
		{
			"type": "Feature",
			"geometry": { "type": "Point", "coordinates": [115.76765, -31.8677] },
			"properties": {
				"@id": "way/4979763",
				"addr:street": "Marmion Avenue",
				"addr:suburb": "Karrinyup",
				"description": "18 hole Par 72",
				"golf:course": "18_hole",
				"golf:par": "72",
				"leisure": "golf_course",
				"name": "Hamersley Golf Course",
				"operator": "City of Stirling",
				"phone": "+61 8 9447 7137",
				"website": "https://www.stirling.wa.gov.au/Recreation/Pages/Hamersley-Golf-Course.aspx"
			}
		},
		{
			"type": "Feature",
			"geometry": { "type": "Point", "coordinates": [138.5295, -34.96112] },
			"properties": {
				"@id": "way/4989486",
				"leisure": "golf_course",
				"name": "Glenelg Golf Course",
				"wikidata": "Q5568471"
			}
		},
		{
			"type": "Feature",
			"geometry": { "type": "Point", "coordinates": [150.68075, -35.07978] },
			"properties": {
				"@id": "way/5020711",
				"leisure": "golf_course",
				"name": "Vincentia Golf Course",
				"source": "yahoo"
			}
		},
		{
			"type": "Feature",
			"geometry": { "type": "Point", "coordinates": [115.71115, -33.30368] },
			"properties": {
				"@id": "way/5028299",
				"leisure": "golf_course",
				"name": "Bunbury Golf Club",
				"sport": "golf"
			}
		},
		{
			"type": "Feature",
			"geometry": { "type": "Point", "coordinates": [150.78683, -34.00466] },
			"properties": {
				"@id": "way/5078960",
				"addr:housenumber": "50",
				"addr:postcode": "2557",
				"addr:street": "Raby Road",
				"description": "18 hole Par 72",
				"email": "golfshop@westslc.com.au",
				"golf:course": "18_hole",
				"golf:par": "72",
				"leisure": "golf_course",
				"name": "Lakeside Golf Club Camden",
				"phone": "+61 2 8777 1000",
				"source": "yahoo",
				"website": "https://camdenlakeside.com.au/"
			}
		},
		{
			"type": "Feature",
			"geometry": { "type": "Point", "coordinates": [150.85264, -34.62934] },
			"properties": { "@id": "way/5105657", "leisure": "golf_course", "name": "Kiama Golf Club" }
		},
		{
			"type": "Feature",
			"geometry": { "type": "Point", "coordinates": [150.69139, -35.00427] },
			"properties": {
				"@id": "way/5182306",
				"created_by": "JOSM",
				"leisure": "golf_course",
				"name": "Callala Beach Golf Course",
				"source": "yahoo"
			}
		},
		{
			"type": "Feature",
			"geometry": { "type": "Point", "coordinates": [115.75455, -31.99875] },
			"properties": {
				"@id": "way/5588981",
				"addr:state": "WA",
				"addr:suburb": "Cottesloe",
				"leisure": "golf_course",
				"name": "Seaview Golf Course",
				"sport": "golf",
				"wikidata": "Q66976088",
				"wikimedia_commons": "Category:Sea View Golf Club"
			}
		},
		{
			"type": "Feature",
			"geometry": { "type": "Point", "coordinates": [149.24163, -35.35904] },
			"properties": {
				"@id": "way/5796682",
				"description": "18 hole Par 70",
				"email": "proshop@queanbeyangolf.com.au",
				"golf:course": "18_hole",
				"golf:par": "70",
				"leisure": "golf_course",
				"name": "Queanbeyan Golf Club",
				"phone": "+61 2 6297 2542",
				"website": "https://www.queanbeyangolf.com.au/"
			}
		},
		{
			"type": "Feature",
			"geometry": { "type": "Point", "coordinates": [115.88209, -32.00068] },
			"properties": {
				"@id": "way/5929275",
				"addr:country": "AU",
				"addr:postcode": "6152",
				"addr:street": "Hayman Road",
				"addr:suburb": "Como",
				"leisure": "golf_course",
				"name": "Collier Park Golf Course",
				"sport": "golf",
				"website": "https://www.collierparkgolf.com.au/"
			}
		},
		{
			"type": "Feature",
			"geometry": { "type": "Point", "coordinates": [151.13905, -34.04291] },
			"properties": {
				"@id": "way/8015171",
				"leisure": "golf_course",
				"name": "Woolooware Golf Course",
				"source": "yahoo_imagery",
				"source:name": "knowledge",
				"website": "https://wooloowaregolfclub.com.au/"
			}
		},
		{
			"type": "Feature",
			"geometry": { "type": "Point", "coordinates": [116.10996, -32.03714] },
			"properties": {
				"@id": "way/8033613",
				"leisure": "golf_course",
				"name": "Pickering Brook Golf Course",
				"sport": "golf"
			}
		},
		{
			"type": "Feature",
			"geometry": { "type": "Point", "coordinates": [115.77346, -32.05411] },